,state,county,candidate,party,total_votes,won,fips,state_code,male,female,median_age,population,female_percentage,lat,long,color
0,Delaware,Kent County,Joe Biden,DEM,44552,True,10001,DE,84271,90551,37.6,174822,51.79611261740513,39.086168928232766,-75.56842231599367,blue
4,Delaware,New Castle County,Joe Biden,DEM,195034,True,10003,DE,268870,286263,38.1,555133,51.56656152669721,39.57683343664609,-75.65269158568691,blue
8,Delaware,Sussex County,Donald Trump,REP,71230,True,10005,DE,106429,113111,49.0,219540,51.52181834745376,38.6605529299024,-75.39003806326262,red
12,District of Columbia,District of Columbia,Joe Biden,DEM,39041,True,11001,,324881,359617,33.9,684498,52.5373339293906,38.904733935498726,-77.01629383836658,blue
19,Florida,Alachua County,Joe Biden,DEM,89704,True,12001,FL,127298,135850,31.3,263148,51.62494109778528,29.67474971890421,-82.3577136804271,blue
27,Florida,Baker County,Donald Trump,REP,11911,True,12003,FL,14753,13032,37.6,27785,46.90300521864315,30.331097919902277,-82.28462852125189,red
35,Florida,Bay County,Donald Trump,REP,66097,True,12005,FL,90768,91714,39.4,182482,50.25920364748304,30.26521548612463,-85.62024281873268,red
43,Florida,Bradford County,Donald Trump,REP,10334,True,12007,FL,14841,12138,40.1,26979,44.99054820415879,29.94994876019308,-82.16876766874358,red
51,Florida,Brevard County,Donald Trump,REP,207883,True,12009,FL,282023,294785,47.2,576808,51.106260662126736,28.293721855653967,-80.73227050221601,red
59,Florida,Broward County,Joe Biden,DEM,618752,True,12011,FL,929712,979439,40.1,1909151,51.302332817048,26.15232237918104,-80.48712563481989,blue
67,Florida,Calhoun County,Donald Trump,REP,5274,True,12013,FL,8048,6396,40.2,14444,44.28136250346165,30.40602254405449,-85.19719429272153,red
75,Florida,Charlotte County,Donald Trump,REP,73243,True,12015,FL,86278,90676,58.6,176954,51.24269584185721,26.90548521747582,-81.91226117367738,red
83,Florida,Citrus County,Donald Trump,REP,65352,True,12017,FL,69376,73711,56.2,143087,51.51481266641973,28.848910853746613,-82.47939451581993,red
91,Florida,Clay County,Donald Trump,REP,84480,True,12019,FL,102225,105066,39.5,207291,50.685268535537,29.98306335791293,-81.85787749603033,red
99,Florida,Collier County,Donald Trump,REP,128950,True,12021,FL,179336,184586,50.3,363922,50.72130841224218,26.110715650069544,-81.34757344148187,red
107,Florida,Columbia County,Donald Trump,REP,23836,True,12023,FL,35683,33422,40.7,69105,48.364083640836405,30.22424804587699,-82.6215392879257,red
115,Florida,DeSoto County,Donald Trump,REP,8313,True,12027,FL,20657,15742,40.6,36399,43.24844089123327,27.18636318151619,-81.8095044842232,red
123,Florida,Dixie County,Donald Trump,REP,6759,True,12029,FL,9218,7219,47.3,16437,43.91920666788343,29.60819159977256,-83.1588003681835,red
130,Florida,Duval County,Joe Biden,DEM,252556,True,12031,FL,448163,476066,36.1,924229,51.5095284826596,30.33157316078935,-81.67084283244348,blue
138,Florida,Escambia County,Donald Trump,REP,96674,True,12033,FL,154520,157002,37.2,311522,50.39836672851356,30.66892673365146,-87.36278300432998,red
146,Florida,Flagler County,Donald Trump,REP,43043,True,12035,FL,51187,55952,50.9,107139,52.22374672154865,29.461424845918263,-81.31356839145538,red
154,Florida,Franklin County,Donald Trump,REP,4675,True,12037,FL,6714,5022,45.0,11736,42.79141104294479,29.876464717759767,-84.81402385488366,red
161,Florida,Gadsden County,Joe Biden,DEM,16153,True,12039,FL,21785,24232,40.7,46017,52.65880000869244,30.57947808300991,-84.61362454008068,blue
168,Florida,Gilchrist County,Donald Trump,REP,7895,True,12041,FL,9249,8366,42.5,17615,47.49361339767244,29.725832116937923,-82.80037637542132,red
176,Florida,Glades County,Donald Trump,REP,3782,True,12043,FL,7303,6060,47.2,13363,45.34909825637956,26.95643070782842,-81.18907378189233,red
183,Florida,Gulf County,Donald Trump,REP,6113,True,12045,FL,9586,6469,44.3,16055,40.29274369355341,29.95553379110409,-85.22659118243887,red
191,Florida,Hamilton County,Donald Trump,REP,3815,True,12047,FL,8281,5988,41.5,14269,41.96509916602425,30.4963888195477,-82.9479328021684,red
199,Florida,Hardee County,Donald Trump,REP,6122,True,12049,FL,14705,12523,35.1,27228,45.99309534302923,27.492702486754368,-81.80998297571232,red
206,Florida,Hendry County,Donald Trump,REP,7906,True,12051,FL,21437,18690,33.9,40127,46.57711765145663,26.55348332568633,-81.1658511122754,red
214,Florida,Hernando County,Donald Trump,REP,70412,True,12053,FL,87747,94949,48.9,182696,51.97103384857906,28.553631869514188,-82.4250382875201,red
222,Florida,Highlands County,Donald Trump,REP,34873,True,12055,FL,49727,52374,53.4,102101,51.29626546263014,27.343294339378847,-81.34103830391945,red
230,Florida,Hillsborough County,Joe Biden,DEM,376367,True,12057,FL,673286,705597,36.9,1378883,51.1716367523568,27.92907665378289,-82.30919543087629,blue
238,Florida,Holmes County,Donald Trump,REP,8080,True,12059,FL,10484,8946,42.5,19430,46.04220277920741,30.867921065400104,-85.81401730838496,red
245,Florida,Indian River County,Donald Trump,REP,58872,True,12061,FL,72290,78694,52.9,150984,52.12075451703492,27.694311706398107,-80.60624480956191,red
253,Florida,Jackson County,Donald Trump,REP,15488,True,12063,FL,26784,21688,41.6,48472,44.74335698960225,30.795424733424305,-85.21549243778115,red
261,Florida,Jefferson County,Donald Trump,REP,4479,True,12065,FL,7507,6598,47.2,14105,46.777738390641616,30.437489290653517,-83.8952923758476,red
269,Florida,Lafayette County,Donald Trump,REP,3128,True,12067,FL,5066,3678,39.1,8744,42.06312900274474,29.98550163421513,-83.18109169194011,red
276,Florida,Lake County,Donald Trump,REP,125859,True,12069,FL,162402,172960,46.8,335362,51.57411990625056,28.7615362975738,-81.71126372382379,red
284,Florida,Lee County,Donald Trump,REP,233247,True,12071,FL,351918,366761,48.1,718679,51.03265853044265,26.577786089619813,-81.83374251869485,red
292,Florida,Leon County,Joe Biden,DEM,103517,True,12073,FL,136894,151208,30.7,288102,52.48418962728479,30.458040822393304,-84.27789669045393,blue
300,Florida,Levy County,Donald Trump,REP,16749,True,12075,FL,19364,20597,46.8,39961,51.54275418533069,29.318428933630333,-82.74355311874234,red
308,Florida,Liberty County,Donald Trump,REP,2846,True,12077,FL,5110,3255,40.3,8365,38.912133891213394,30.24137448501433,-84.88289857705256,red
315,Florida,Madison County,Donald Trump,REP,5576,True,12079,FL,9829,8645,42.9,18474,46.79549637328137,30.444118897538992,-83.47012097179798,red
323,Florida,Manatee County,Donald Trump,REP,124987,True,12081,FL,180595,193258,48.0,373853,51.69358009698999,27.4719056774396,-82.31531846354605,red
331,Florida,Marion County,Donald Trump,REP,127826,True,12083,FL,167211,181160,48.6,348371,52.00203231612276,29.21020747879416,-82.05665151069297,red
339,Florida,Martin County,Donald Trump,REP,61168,True,12085,FL,78002,79579,51.9,157581,50.50037758359193,27.077522043942032,-80.43147131544296,red
347,Florida,Miami-Dade County,Joe Biden,DEM,617864,True,12086,FL,1318627,1396889,39.7,2715516,51.44101526192444,25.614959287482183,-80.56228896188752,blue
355,Florida,Monroe County,Donald Trump,REP,25693,True,12087,FL,39822,36503,47.3,76325,47.82574516868654,25.31561829914492,-81.11063629941314,red
363,Florida,Nassau County,Donald Trump,REP,42566,True,12089,FL,39956,40622,45.0,80578,50.413264166397774,30.61059898992588,-81.80161575823566,red
371,Florida,Okaloosa County,Donald Trump,REP,79798,True,12091,FL,101745,98992,36.8,200737,49.3142768896616,30.69128365967258,-86.59172167469083,red
379,Florida,Okeechobee County,Donald Trump,REP,11470,True,12093,FL,21866,18706,41.1,40572,46.105688652272505,27.38644235256013,-80.88863138971482,red
387,Florida,Orange County,Joe Biden,DEM,395014,True,12095,FL,648446,672748,34.9,1321194,50.91969839402844,28.514424652065124,-81.32351241050317,blue
395,Florida,Osceola County,Joe Biden,DEM,97297,True,12097,FL,166820,171799,35.8,338619,50.73519205951232,28.062685620772758,-81.14947487580018,blue
403,Florida,Palm Beach County,Joe Biden,DEM,433572,True,12099,FL,701207,745070,44.6,1446277,51.516410756722266,26.647595844261048,-80.46551002338627,blue
411,Florida,Pasco County,Donald Trump,REP,179621,True,12101,FL,248572,262021,44.6,510593,51.316998078704565,28.309095478557374,-82.39319537627861,red
419,Florida,Pinellas County,Joe Biden,DEM,277450,True,12103,FL,459766,498109,47.8,957875,52.00146156857628,27.919601540135304,-82.7255990416769,blue
427,Florida,Polk County,Donald Trump,REP,194586,True,12105,FL,327706,340965,40.3,668671,50.99144422294371,27.94887980066956,-81.69757667431374,red
435,Florida,Putnam County,Donald Trump,REP,25514,True,12107,FL,35841,36925,45.0,72766,50.744853365582834,29.608652485033243,-81.74430345444475,red
443,Florida,St. Johns County,Donald Trump,REP,110946,True,12109,FL,114660,120843,43.4,235503,51.312722130928265,29.901641120442296,-81.44066458471889,red
451,Florida,St. Lucie County,Donald Trump,REP,86831,True,12111,FL,149385,156206,44.8,305591,51.116034176399175,27.377256464055723,-80.47202647272215,red
459,Florida,Santa Rosa County,Donald Trump,REP,77385,True,12113,FL,87175,83267,39.7,170442,48.853568956008495,30.70044158800905,-87.02197833777852,red
467,Florida,Sarasota County,Donald Trump,REP,148370,True,12115,FL,196433,215711,55.5,412144,52.33874568112115,27.184467891882765,-82.33150444148295,red
475,Florida,Seminole County,Joe Biden,DEM,132528,True,12117,FL,219935,235151,39.2,455086,51.67177192882224,28.716972758150614,-81.23631749629911,blue
483,Florida,Sumter County,Donald Trump,REP,62761,True,12119,FL,60725,60274,67.0,120999,49.813634823428295,28.70475599819752,-82.0809733245132,red
491,Florida,Suwannee County,Donald Trump,REP,16410,True,12121,FL,22230,21694,42.5,43924,49.38985520444404,30.1956050583855,-82.99149467549117,red
498,Florida,Taylor County,Donald Trump,REP,7751,True,12123,FL,12414,9684,41.7,22098,43.8229704045615,30.04701274004669,-83.60352701355308,red
506,Florida,Union County,Donald Trump,REP,5133,True,12125,FL,9919,5320,39.5,15239,34.91042719338539,30.043854965375026,-82.37143421304569,red
514,Florida,Volusia County,Donald Trump,REP,173821,True,12127,FL,257275,270359,46.5,527634,51.23987461005166,29.05842069048299,-81.1819206464182,red
522,Florida,Wakulla County,Donald Trump,REP,12874,True,12129,FL,17490,14387,40.7,31877,45.13285440913511,30.16731985949023,-84.40067670819596,red
529,Florida,Walton County,Donald Trump,REP,32947,True,12131,FL,33317,32541,43.7,65858,49.410853654833126,30.643581658467333,-86.16965567860775,red
537,Florida,Washington County,Donald Trump,REP,9876,True,12133,FL,13231,11335,41.8,24566,46.14100789709354,30.61060117393221,-85.6653326437579,red
544,Georgia,Appling County,Donald Trump,REP,6570,True,13001,GA,9353,9101,39.0,18454,49.31722119865612,31.74922311475336,-82.28889645061686,red
548,Georgia,Atkinson County,Donald Trump,REP,2300,True,13003,GA,4208,4057,35.5,8265,49.0865093768905,31.29713317743141,-82.88007086610327,red
552,Georgia,Bacon County,Donald Trump,REP,4017,True,13005,GA,5564,5664,37.0,11228,50.44531528322052,31.553680087486093,-82.45269850637237,red
556,Georgia,Baker County,Donald Trump,REP,897,True,13007,GA,1521,1668,47.0,3189,52.30479774223896,31.32614478356452,-84.44471523235575,red
560,Georgia,Baldwin County,Joe Biden,DEM,9140,True,13009,GA,22759,22527,35.3,45286,49.743850196528726,33.06926620604074,-83.24955570280326,blue
564,Georgia,Banks County,Donald Trump,REP,7795,True,13011,GA,9281,9229,41.1,18510,49.859535386277685,34.354150509758256,-83.49737690472382,red
568,Georgia,Barrow County,Donald Trump,REP,26804,True,13013,GA,37771,39116,35.4,76887,50.87466021564113,33.99318851194388,-83.71273176520245,red
572,Georgia,Bartow County,Donald Trump,REP,37672,True,13015,GA,51332,52288,37.9,103620,50.461300907160776,34.23786492659281,-84.84049136346613,red
576,Georgia,Ben Hill County,Donald Trump,REP,4111,True,13017,GA,8047,9107,39.7,17154,53.089658388714,31.75979096552452,-83.22050662751855,red
580,Georgia,Berrien County,Donald Trump,REP,6419,True,13019,GA,9299,9726,39.7,19025,51.12220762155059,31.275953070099973,-83.2296386824687,red
584,Georgia,Bibb County,Joe Biden,DEM,43408,True,13021,GA,72065,81425,36.2,153490,53.04905857059092,32.80649503959659,-83.69740490521552,blue
588,Georgia,Bleckley County,Donald Trump,REP,4329,True,13023,GA,5937,6838,36.8,12775,53.526418786692766,32.43444533648342,-83.32781353408475,red
592,Georgia,Brantley County,Donald Trump,REP,6993,True,13025,GA,9103,9458,40.9,18561,50.95630623350035,31.19687588159824,-81.98190369036095,red
596,Georgia,Brooks County,Donald Trump,REP,4261,True,13027,GA,7608,8014,43.0,15622,51.299449494302905,30.841980890813737,-83.58020127816081,red
600,Georgia,Bryan County,Donald Trump,REP,14240,True,13029,GA,17786,18099,34.6,35885,50.43611536853838,32.01447125496505,-81.44363800915423,red
604,Georgia,Bulloch County,Donald Trump,REP,18387,True,13031,GA,36777,38005,28.5,74782,50.82105319461903,32.396807700709054,-81.74318109731512,red
608,Georgia,Burke County,Donald Trump,REP,5400,True,13033,GA,10697,11853,37.5,22550,52.56319290465632,33.06108149647406,-82.00090102559142,red
612,Georgia,Butts County,Donald Trump,REP,8406,True,13035,GA,12661,11089,38.5,23750,46.69052631578947,33.287881117452336,-83.95718512837009,red
616,Georgia,Calhoun County,Joe Biden,DEM,1263,True,13037,GA,3875,2553,38.8,6428,39.71686372121967,31.529222291905548,-84.62453274545412,blue
620,Georgia,Camden County,Donald Trump,REP,15249,True,13039,GA,27019,25695,32.3,52714,48.74416663504951,30.9305629089952,-81.66997639236853,red
624,Georgia,Candler County,Donald Trump,REP,3133,True,13043,GA,5363,5464,37.8,10827,50.4664265262769,32.403441866832,-82.07366026690293,red
628,Georgia,Carroll County,Donald Trump,REP,37476,True,13045,GA,56448,59574,34.5,116022,51.347158297564256,33.58278635872622,-85.07976834898115,red
632,Georgia,Catoosa County,Donald Trump,REP,25167,True,13047,GA,31991,34308,39.9,66299,51.74738683841385,34.90362889994557,-85.1382495470056,red
636,Georgia,Charlton County,Donald Trump,REP,3419,True,13049,GA,7522,5461,41.7,12983,42.062697373488405,30.78172966832286,-82.13793183909222,red
640,Georgia,Chatham County,Joe Biden,DEM,78247,True,13051,GA,138403,148646,35.2,287049,51.7841901556877,32.00421552918854,-81.13283524725082,blue
644,Georgia,Chattahoochee County,Donald Trump,REP,880,True,13053,GA,7172,3595,23.7,10767,33.38905916225504,32.34698433321824,-84.78702090474057,red
648,Georgia,Chattooga County,Donald Trump,REP,8064,True,13055,GA,12865,11952,39.5,24817,48.16053511705686,34.47500026331241,-85.34534078306989,red
652,Georgia,Cherokee County,Donald Trump,REP,99585,True,13057,GA,119270,122640,38.3,241910,50.696540035550406,34.24394989575188,-84.47619174967369,red
656,Georgia,Clarke County,Joe Biden,DEM,36055,True,13059,GA,59248,65354,27.7,124602,52.45020144138939,33.951178294195735,-83.36733044991767,blue
660,Georgia,Clay County,Joe Biden,DEM,791,True,13061,GA,1473,1528,45.1,3001,50.91636121292903,31.626237880866245,-84.98008738502199,blue
664,Georgia,Clayton County,Joe Biden,DEM,95466,True,13063,GA,130748,147918,32.4,278666,53.08074899700716,33.54190470997107,-84.35764422823787,blue
668,Georgia,Clinch County,Donald Trump,REP,2105,True,13065,GA,3427,3316,37.7,6743,49.17692421770725,30.91499529746785,-82.7062571569877,red
672,Georgia,Cobb County,Joe Biden,DEM,221847,True,13067,GA,360270,384787,36.5,745057,51.64531035880477,33.941481403689004,-84.57669231618759,blue
676,Georgia,Coffee County,Donald Trump,REP,10578,True,13069,GA,22088,20873,36.2,42961,48.58592677079211,31.549285774251164,-82.84917705280685,red
680,Georgia,Colquitt County,Donald Trump,REP,11777,True,13071,GA,22554,23052,36.4,45606,50.54598079200105,31.188376864146942,-83.76879848979921,red
684,Georgia,Columbia County,Donald Trump,REP,50013,True,13073,GA,71970,75325,36.6,147295,51.13887097321701,33.544117005468124,-82.26403886625559,red
688,Georgia,Cook County,Donald Trump,REP,4900,True,13075,GA,8348,8836,37.4,17184,51.41992551210428,31.15399291233004,-83.43046305152593,red
692,Georgia,Coweta County,Donald Trump,REP,51501,True,13077,GA,68430,72086,38.5,140516,51.30091946824561,33.353464261142136,-84.76335813394351,red
696,Georgia,Crawford County,Donald Trump,REP,4428,True,13079,GA,6299,6045,44.4,12344,48.97116007777058,32.71451075484091,-83.98632970226816,red
700,Georgia,Crisp County,Donald Trump,REP,4985,True,13081,GA,10849,11997,38.8,22846,52.51247483148035,31.9229115334244,-83.76805458478232,red
704,Georgia,Dade County,Donald Trump,REP,6066,True,13083,GA,7932,8295,42.2,16227,51.1185061933814,34.85455198002998,-85.50451949439496,red
708,Georgia,Dawson County,Donald Trump,REP,13398,True,13085,GA,11774,12087,43.4,23861,50.655881983152426,34.44429664766713,-84.17062681094588,red
712,Georgia,Decatur County,Donald Trump,REP,6755,True,13087,GA,12907,13926,38.1,26833,51.898781351321134,30.878348510707905,-84.5790467928489,red
716,Georgia,DeKalb County,Joe Biden,DEM,308162,True,13089,GA,351871,391316,35.6,743187,52.653773545554486,33.7715360255193,-84.22642599367776,blue
720,Georgia,Dodge County,Donald Trump,REP,5843,True,13091,GA,10972,9947,41.6,20919,47.55007409532004,32.17220685504268,-83.16840542232751,red
724,Georgia,Dooly County,Donald Trump,REP,2159,True,13093,GA,7529,6376,43.7,13905,45.85400934915498,32.15718703870342,-83.79879578129346,red
728,Georgia,Dougherty County,Joe Biden,DEM,24568,True,13095,GA,42144,48905,35.1,91049,53.71283594547991,31.53346417626125,-84.2163863940889,blue
732,Georgia,Douglas County,Joe Biden,DEM,42814,True,13097,GA,67726,74114,36.4,141840,52.25183305132544,33.70184254125166,-84.76795534667156,blue
736,Georgia,Early County,Donald Trump,REP,2710,True,13099,GA,4791,5557,40.7,10348,53.70119829918825,31.322828065272223,-84.9036560198351,red
740,Georgia,Echols County,Donald Trump,REP,1256,True,13101,GA,1973,2021,40.9,3994,50.60090135202804,30.710050404607664,-82.8939614401204,red
744,Georgia,Effingham County,Donald Trump,REP,23361,True,13103,GA,29215,29474,36.1,58689,50.22065463715517,32.36728626780035,-81.34135177842046,red
748,Georgia,Elbert County,Donald Trump,REP,6226,True,13105,GA,9188,10024,42.6,19212,52.17572350614199,34.11679503971489,-82.84014598002615,red
752,Georgia,Emanuel County,Donald Trump,REP,6553,True,13107,GA,11105,11394,36.8,22499,50.64225076670075,32.58973973272469,-82.30171316851842,red
756,Georgia,Evans County,Donald Trump,REP,2888,True,13109,GA,5303,5424,37.7,10727,50.56399738976415,32.156764561306865,-81.88688163404811,red
760,Georgia,Fannin County,Donald Trump,REP,12169,True,13111,GA,12086,12839,51.4,24925,51.51053159478435,34.86408398906588,-84.31983386746593,red
764,Georgia,Fayette County,Donald Trump,REP,37956,True,13113,GA,54055,57314,43.5,111369,51.46315401952069,33.4139533236953,-84.49418416217284,red
768,Georgia,Floyd County,Donald Trump,REP,28906,True,13115,GA,46810,50014,38.5,96824,51.65454845905973,34.26318326372692,-85.21425982603338,red
772,Georgia,Forsyth County,Donald Trump,REP,85123,True,13117,GA,109258,110622,38.3,219880,50.31016918319084,34.225543250240136,-84.12502041036171,red
776,Georgia,Franklin County,Donald Trump,REP,9069,True,13119,GA,10853,11661,41.0,22514,51.79443901572355,34.375440172659985,-83.22915634034976,red
780,Georgia,Fulton County,Joe Biden,DEM,380212,True,13121,GA,495087,526815,35.4,1021902,51.55239934944839,33.7902819359464,-84.466990863304,blue
784,Georgia,Gilmer County,Donald Trump,REP,13429,True,13123,GA,15079,14843,46.9,29922,49.60564133413542,34.691163005166125,-84.45562503764883,red
788,Georgia,Glascock County,Donald Trump,REP,1402,True,13125,GA,1438,1571,43.2,3009,52.21003655699568,33.22928288536465,-82.61070062299642,red
792,Georgia,Glynn County,Donald Trump,REP,25617,True,13127,GA,39419,44555,41.0,83974,53.05808940862647,31.230896488306307,-81.54071676718564,red
796,Georgia,Gordon County,Donald Trump,REP,19405,True,13129,GA,28001,28789,37.8,56790,50.69378411692199,34.5033605690871,-84.87570724278247,red
800,Georgia,Grady County,Donald Trump,REP,7034,True,13131,GA,12176,12750,39.7,24926,51.1514081681778,30.874665907997095,-84.23444072471816,red
804,Georgia,Greene County,Donald Trump,REP,7066,True,13133,GA,8299,8677,49.4,16976,51.113336475023566,33.578830247761594,-83.16667059638986,red
808,Georgia,Gwinnett County,Joe Biden,DEM,241994,True,13135,GA,441051,461247,35.1,902298,51.11914245626168,33.96172854043182,-84.02359470088649,blue
812,Georgia,Habersham County,Donald Trump,REP,16637,True,13137,GA,20962,23327,39.5,44289,52.66996319627899,34.63102796897801,-83.53112369360295,red
816,Georgia,Hall County,Donald Trump,REP,64183,True,13139,GA,97518,98443,36.3,195961,50.23601635019212,34.31690075671022,-83.81966681467573,red
820,Georgia,Hancock County,Joe Biden,DEM,2976,True,13141,GA,5193,3342,46.5,8535,39.156414762741655,33.27045137148866,-83.00067258771404,blue
824,Georgia,Haralson County,Donald Trump,REP,12330,True,13143,GA,14041,14915,40.8,28956,51.50918635170604,33.79421744119261,-85.21101885254258,red
828,Georgia,Harris County,Donald Trump,REP,14319,True,13145,GA,16832,16758,43.1,33590,49.889848169097945,32.73603909608057,-84.90889194436292,red
832,Georgia,Hart County,Donald Trump,REP,9465,True,13147,GA,12558,13073,43.8,25631,51.0046428153408,34.350834817028144,-82.96422076152128,red
836,Georgia,Heard County,Donald Trump,REP,4519,True,13149,GA,5747,5930,41.5,11677,50.78359167594416,33.2970394184972,-85.12833608227382,red
840,Georgia,Henry County,Joe Biden,DEM,73443,True,13151,GA,105759,115548,36.9,221307,52.21163361303529,33.453002479672215,-84.15420611600409,blue
844,Georgia,Houston County,Donald Trump,REP,41540,True,13153,GA,73756,77926,35.3,151682,51.37458630556032,32.45900724874561,-83.6662261769682,red
848,Georgia,Irwin County,Donald Trump,REP,3134,True,13155,GA,4758,4510,39.9,9268,48.662063012516185,31.60221363525994,-83.27635387196311,red
852,Georgia,Jackson County,Donald Trump,REP,29502,True,13157,GA,32445,33310,38.5,65755,50.6577446582009,34.133885707172965,-83.56636586667071,red
856,Georgia,Jasper County,Donald Trump,REP,5822,True,13159,GA,6682,7102,42.4,13784,51.523505513639,33.316395871421726,-83.68805768375236,red
860,Georgia,Jeff Davis County,Donald Trump,REP,4695,True,13161,GA,7408,7583,36.7,14991,50.583683543459415,31.80559288631852,-82.63683938670643,red
864,Georgia,Jefferson County,Joe Biden,DEM,4058,True,13163,GA,7605,8167,39.3,15772,51.78163834643672,33.054865346172456,-82.41817746894817,blue
868,Georgia,Jenkins County,Donald Trump,REP,2161,True,13165,GA,4055,4772,43.7,8827,54.06140251501076,32.7924472715822,-81.9635495362388,red
872,Georgia,Johnson County,Donald Trump,REP,2850,True,13167,GA,5318,4412,41.0,9730,45.344295991778,32.70146071522266,-82.66007950762193,red
876,Georgia,Jones County,Donald Trump,REP,9940,True,13169,GA,13874,14674,40.1,28548,51.401148942132544,33.02512491413167,-83.5604947961818,red
880,Georgia,Lamar County,Donald Trump,REP,6331,True,13171,GA,8959,9554,37.5,18513,51.60697887970616,33.07653568624398,-84.13947124201903,red
884,Georgia,Lanier County,Donald Trump,REP,2509,True,13173,GA,5183,5183,35.4,10366,50.0,31.03787301419776,-83.06275656378837,red
888,Georgia,Laurens County,Donald Trump,REP,14493,True,13175,GA,22497,24921,38.3,47418,52.55599139567253,32.46365198549267,-82.92223333826969,red
892,Georgia,Lee County,Donald Trump,REP,12007,True,13177,GA,14674,14674,37.2,29348,50.0,31.77955418319694,-84.14116010178077,red
896,Georgia,Liberty County,Joe Biden,DEM,13104,True,13179,GA,31550,30558,28.1,62108,49.20139112513686,31.828090427969027,-81.49472957063509,blue
900,Georgia,Lincoln County,Donald Trump,REP,3173,True,13181,GA,3683,4116,47.3,7799,52.7759969226824,33.7936368132954,-82.45114027585134,red
904,Georgia,Long County,Donald Trump,REP,3527,True,13183,GA,8872,9284,32.7,18156,51.13461114782992,31.752555201377376,-81.74569516867166,red
908,Georgia,Lowndes County,Donald Trump,REP,25692,True,13185,GA,55959,58623,30.2,114582,51.16248625438551,30.833813483294463,-83.26772968164954,red
912,Georgia,Lumpkin County,Donald Trump,REP,12163,True,13187,GA,15551,16400,37.2,31951,51.3285969140246,34.57218743697272,-84.00267573416866,red
916,Georgia,McDuffie County,Donald Trump,REP,6169,True,13189,GA,9999,11499,37.6,21498,53.48869662294167,33.48286163979095,-82.48136661504543,red
920,Georgia,McIntosh County,Donald Trump,REP,4016,True,13191,GA,7036,7084,49.7,14120,50.169971671388105,31.496659485555227,-81.40846875833738,red
924,Georgia,Macon County,Joe Biden,DEM,2858,True,13193,GA,7342,6138,40.2,13480,45.53412462908012,32.35838315247808,-84.04249465304633,blue
928,Georgia,Madison County,Donald Trump,REP,11326,True,13195,GA,14508,14392,41.2,28900,49.79930795847751,34.12778417055858,-83.20903988886081,red
932,Georgia,Marion County,Donald Trump,REP,2275,True,13197,GA,4203,4281,45.2,8484,50.45968882602546,32.35339325258453,-84.52466882566891,red
936,Georgia,Meriwether County,Donald Trump,REP,6524,True,13199,GA,10221,10892,41.6,21113,51.58906834651636,33.04066422223384,-84.68831071107692,red
940,Georgia,Miller County,Donald Trump,REP,2066,True,13201,GA,2832,3004,43.8,5836,51.47361206305688,31.164005230826767,-84.73078382508005,red
944,Georgia,Mitchell County,Donald Trump,REP,4935,True,13205,GA,11683,10749,38.9,22432,47.91815263908702,31.22532030903023,-84.19427546982408,red
948,Georgia,Monroe County,Donald Trump,REP,11057,True,13207,GA,13600,13410,43.1,27010,49.648278415401705,33.013924150194065,-83.91865754889993,red
952,Georgia,Montgomery County,Donald Trump,REP,2960,True,13209,GA,4633,4403,40.0,9036,48.72731297034086,32.173393679756025,-82.53477357833202,red
956,Georgia,Morgan County,Donald Trump,REP,8231,True,13211,GA,8783,9452,44.5,18235,51.83438442555525,33.59080330045103,-83.49237353017767,red
960,Georgia,Murray County,Donald Trump,REP,12944,True,13213,GA,19522,20035,38.2,39557,50.64843137750587,34.78842922144334,-84.74806874405759,red
964,Georgia,Muscogee County,Joe Biden,DEM,49446,True,13215,GA,96279,100391,33.9,196670,51.04540601006763,32.51002371368805,-84.87706039104368,blue
968,Georgia,Newton County,Joe Biden,DEM,29789,True,13217,GA,50598,55899,36.2,106497,52.48880250147892,33.555039157268126,-83.85019177493012,blue
972,Georgia,Oconee County,Donald Trump,REP,16595,True,13219,GA,18164,18853,40.4,37017,50.93065348353459,33.834965201588105,-83.43710308366634,red
976,Georgia,Oglethorpe County,Donald Trump,REP,5592,True,13221,GA,7396,7388,42.1,14784,49.972943722943725,33.88066819420212,-83.08070771617628,red
980,Georgia,Paulding County,Donald Trump,REP,54517,True,13223,GA,76195,79645,35.8,155840,51.1069045174538,33.92053350472796,-84.86729515573921,red
984,Georgia,Peach County,Donald Trump,REP,6506,True,13225,GA,12952,14014,36.9,26966,51.9691463324186,32.56875549820775,-83.82689022730187,red
988,Georgia,Pickens County,Donald Trump,REP,14110,True,13227,GA,15233,15599,45.1,30832,50.59353918007265,34.46432655915882,-84.46555468723135,red
992,Georgia,Pierce County,Donald Trump,REP,7898,True,13229,GA,9639,9525,39.4,19164,49.70256731371322,31.35876960686481,-82.21276281112966,red
996,Georgia,Pike County,Donald Trump,REP,9127,True,13231,GA,8876,9206,40.7,18082,50.91250967813294,33.09228331201116,-84.38925956576274,red
1000,Georgia,Polk County,Donald Trump,REP,13587,True,13233,GA,20415,21206,37.1,41621,50.95024146464525,34.00179086403913,-85.18814290718093,red
1004,Georgia,Pulaski County,Donald Trump,REP,2815,True,13235,GA,5075,6220,43.0,11295,55.06861443116423,32.23229646334694,-83.475964465911,red
1008,Georgia,Putnam County,Donald Trump,REP,8291,True,13237,GA,10402,11101,46.0,21503,51.62535460168348,33.32176673014263,-83.37279373610288,red
1012,Georgia,Quitman County,Donald Trump,REP,604,True,13239,GA,1081,1195,48.4,2276,52.50439367311072,31.867347385442194,-85.01877002581864,red
1016,Georgia,Rabun County,Donald Trump,REP,7474,True,13241,GA,8107,8350,48.8,16457,50.73828765874704,34.88173555762309,-83.40208021933655,red
1020,Georgia,Randolph County,Joe Biden,DEM,1671,True,13243,GA,3493,3594,40.0,7087,50.71257231550727,31.76265514822153,-84.7541886427644,blue
1024,Georgia,Richmond County,Joe Biden,DEM,59119,True,13245,GA,97272,104191,33.9,201463,51.71718876418995,33.359591951593146,-82.07350359720895,blue
1028,Georgia,Rockdale County,Joe Biden,DEM,31237,True,13247,GA,41944,47067,37.7,89011,52.877734212625406,33.65425070435243,-84.0265900693865,blue
1032,Georgia,Schley County,Donald Trump,REP,1800,True,13249,GA,2546,2665,37.8,5211,51.14181539052005,32.261662557368844,-84.31475698370534,red
1036,Georgia,Screven County,Donald Trump,REP,3915,True,13251,GA,6804,7186,41.5,13990,51.365260900643314,32.75060542525908,-81.61194170828179,red
1040,Georgia,Seminole County,Donald Trump,REP,2613,True,13253,GA,4027,4410,44.0,8437,52.26976413417091,30.93878565806053,-84.86883880876836,red
1044,Georgia,Spalding County,Donald Trump,REP,18104,True,13255,GA,31395,33324,39.1,64719,51.49028878690957,33.260886846415865,-84.28409469167887,red
1048,Georgia,Stephens County,Donald Trump,REP,9367,True,13257,GA,11765,13911,41.5,25676,54.17899984421249,34.55394199534727,-83.29347237703007,red
1052,Georgia,Stewart County,Joe Biden,DEM,1182,True,13259,GA,3894,2148,36.4,6042,35.55114200595829,32.07848971206861,-84.8352170484292,blue
1056,Georgia,Sumter County,Joe Biden,DEM,6314,True,13261,GA,14359,15993,35.5,30352,52.69175013178703,32.03994282224766,-84.19699391602437,blue
1060,Georgia,Talbot County,Joe Biden,DEM,2114,True,13263,GA,3032,3346,49.2,6378,52.46158670429602,32.69949851204999,-84.53300952425894,blue
1064,Georgia,Taliaferro County,Joe Biden,DEM,561,True,13265,GA,847,818,46.3,1665,49.129129129129126,33.56613476013978,-82.87877142234885,blue
1068,Georgia,Tattnall County,Donald Trump,REP,6054,True,13267,GA,14888,10465,37.4,25353,41.27716641028675,32.04579765483292,-82.05812943063302,red
1072,Georgia,Taylor County,Donald Trump,REP,2420,True,13269,GA,3946,4247,44.4,8193,51.83693396802149,32.55547640005065,-84.2504742814891,red
1076,Georgia,Telfair County,Donald Trump,REP,2825,True,13271,GA,9346,6769,41.0,16115,42.004343779087804,31.9298058701554,-82.93901137308181,red
1080,Georgia,Terrell County,Joe Biden,DEM,2376,True,13273,GA,4228,4631,40.9,8859,52.274523083869504,31.7769979123536,-84.43696997612308,blue
1084,Georgia,Thomas County,Donald Trump,REP,12969,True,13275,GA,21219,23511,40.3,44730,52.562038900067066,30.863763927045305,-83.9193277570933,red
1088,Georgia,Tift County,Donald Trump,REP,10784,True,13277,GA,19509,21001,35.5,40510,51.84152061219452,31.45742933036171,-83.52660087699132,red
1092,Georgia,Toombs County,Donald Trump,REP,7873,True,13279,GA,12491,14557,36.4,27048,53.81913635019225,32.12161158005105,-82.33121596075421,red
1096,Georgia,Towns County,Donald Trump,REP,6384,True,13281,GA,5334,6083,53.7,11417,53.28019619865113,34.916710683206986,-83.73730602696065,red
1100,Georgia,Treutlen County,Donald Trump,REP,2101,True,13283,GA,3573,3204,39.7,6777,47.277556440903055,32.403874795903945,-82.56728819880553,red
1104,Georgia,Troup County,Donald Trump,REP,18142,True,13285,GA,33387,36387,36.3,69774,52.14979791899561,33.033539628253294,-85.02836514828462,red
1108,Georgia,Turner County,Donald Trump,REP,2349,True,13287,GA,3843,4119,38.8,7962,51.73323285606632,31.71638191961585,-83.6240915796479,red
1112,Georgia,Twiggs County,Donald Trump,REP,2370,True,13289,GA,4068,4216,46.2,8284,50.89328826653791,32.66720049189172,-83.42707722438509,red
1116,Georgia,Union County,Donald Trump,REP,12650,True,13291,GA,11048,11727,53.9,22775,51.490669593852914,34.83408734987639,-83.99071662776927,red
1120,Georgia,Upson County,Donald Trump,REP,8606,True,13293,GA,12503,13713,41.7,26216,52.30775099176076,32.881274804687685,-84.29934917654765,red
1124,Georgia,Walker County,Donald Trump,REP,23173,True,13295,GA,34082,34742,41.4,68824,50.47948390096478,34.73564648783483,-85.30099086456465,red
1128,Georgia,Walton County,Donald Trump,REP,37839,True,13297,GA,43775,46357,38.7,90132,51.43234367372298,33.78155675435902,-83.73386980893855,red
1132,Georgia,Ware County,Donald Trump,REP,9903,True,13299,GA,17753,17846,38.4,35599,50.130621646675465,31.053788550656524,-82.42371808286023,red
1136,Georgia,Warren County,Joe Biden,DEM,1468,True,13301,GA,2475,2871,45.2,5346,53.70370370370371,33.408948174955924,-82.67675068794323,blue
1140,Georgia,Washington County,Joe Biden,DEM,4743,True,13303,GA,10361,10100,40.6,20461,49.36220126093544,32.96953472167585,-82.79593022594499,blue
1144,Georgia,Wayne County,Donald Trump,REP,9987,True,13305,GA,15051,14716,38.2,29767,49.43729633486747,31.551447524552763,-81.91672490842868,red
1148,Georgia,Webster County,Donald Trump,REP,748,True,13307,GA,1254,1359,45.0,2613,52.00918484500574,32.04664019353119,-84.55104518308963,red
1152,Georgia,Wheeler County,Donald Trump,REP,1583,True,13309,GA,5007,2932,38.2,7939,36.93160347650838,32.1170542401269,-82.72458014398126,red
1156,Georgia,White County,Donald Trump,REP,12222,True,13311,GA,14128,14800,46.1,28928,51.16150442477876,34.646410393624464,-83.74710566356966,red
1160,Georgia,Whitfield County,Donald Trump,REP,25644,True,13313,GA,51525,52324,36.0,103849,50.38469316026153,34.80561127358241,-84.96720773229018,red
1164,Georgia,Wilcox County,Donald Trump,REP,2402,True,13315,GA,5242,3604,39.5,8846,40.74157811440199,31.972897241156023,-83.43234537904169,red
1168,Georgia,Wilkes County,Donald Trump,REP,2823,True,13317,GA,4770,5114,46.1,9884,51.74018615944962,33.78194964640528,-82.74319597931739,red
1172,Georgia,Wilkinson County,Donald Trump,REP,2665,True,13319,GA,4349,4729,41.8,9078,52.09297202026878,32.80238192466023,-83.17123807562939,red
1176,Georgia,Worth County,Donald Trump,REP,6830,True,13321,GA,10040,10616,41.1,20656,51.39426800929512,31.551499844320897,-83.85089246342618,red
1180,Hawaii,Hawaii County,Joe Biden,DEM,58731,True,15001,HI,98276,99382,42.3,197658,50.27977617905675,19.598720832762474,-155.51849348203964,blue
1186,Hawaii,Honolulu County,Joe Biden,DEM,238869,True,15003,HI,497646,489992,37.6,987638,49.61250984672522,21.500785361340995,-158.10533417955455,blue
1192,Hawaii,Kauai County,Joe Biden,DEM,21225,True,15007,HI,35375,36002,42.4,71377,50.43921711475685,22.03962536798675,-159.59634878220444,blue
1198,Hawaii,Maui County,Joe Biden,DEM,47305,True,15009,HI,82437,82844,41.1,165281,50.12312365002632,20.85964011353776,-156.56484629546918,blue
1204,Idaho,Ada County,Donald Trump,REP,130699,True,16001,ID,223367,222685,36.7,446052,49.923551514173234,43.4510924135356,-116.2411608694026,red
1211,Idaho,Adams County,Donald Trump,REP,1941,True,16003,ID,2093,1926,54.2,4019,47.92236874844489,44.889593222254135,-116.45382543640274,red
1219,Idaho,Bannock County,Donald Trump,REP,23331,True,16005,ID,42300,42765,33.3,85065,50.2733204020455,42.66848736883945,-112.2246106315902,red
1226,Idaho,Bear Lake County,Donald Trump,REP,2914,True,16007,ID,2898,3064,39.3,5962,51.392150285139216,42.28478414560279,-111.3296870231912,red
1233,Idaho,Benewah County,Donald Trump,REP,3878,True,16009,ID,4607,4479,46.1,9086,49.29561963460268,47.21755258065864,-116.65870892318664,red
1240,Idaho,Bingham County,Donald Trump,REP,15295,True,16011,ID,22746,22805,33.5,45551,50.06476257381836,43.21655175084742,-112.39809334143744,red
1248,Idaho,Blaine County,Joe Biden,DEM,8919,True,16013,ID,11251,10743,43.2,21994,48.84513958352278,43.41194442285568,-113.9801748029922,blue
1256,Idaho,Boise County,Donald Trump,REP,3485,True,16015,ID,3780,3383,53.0,7163,47.22881474242636,43.98913016767068,-115.73036319079512,red
1264,Idaho,Bonner County,Donald Trump,REP,18369,True,16017,ID,21366,21345,47.8,42711,49.97541616913676,48.30004320072049,-116.60107557638288,red
1272,Idaho,Bonneville County,Donald Trump,REP,37805,True,16019,ID,56237,56160,32.7,112397,49.965746416719306,43.38773727219922,-111.61479126751084,red
1279,Idaho,Boundary County,Donald Trump,REP,4937,True,16021,ID,5735,5814,43.5,11549,50.34202095419517,48.766868569461685,-116.46287427634844,red
1287,Idaho,Butte County,Donald Trump,REP,1202,True,16023,ID,1342,1260,48.1,2602,48.42428900845504,43.7229121870266,-113.17206737202956,red
1294,Idaho,Camas County,Donald Trump,REP,507,True,16025,ID,433,453,46.3,886,51.12866817155757,43.46332936895208,-114.80576739792691,red
1302,Idaho,Canyon County,Donald Trump,REP,61759,True,16027,ID,104902,107328,33.4,212230,50.571549733779385,43.62513686554448,-116.7093125890369,red
1310,Idaho,Caribou County,Donald Trump,REP,2906,True,16029,ID,3543,3375,36.9,6918,48.78577623590633,42.77049662452163,-111.56225975044258,red
1317,Idaho,Cassia County,Donald Trump,REP,7907,True,16031,ID,12039,11576,32.2,23615,49.01969087444421,42.28388223476903,-113.60010075689284,red
1324,Idaho,Clark County,Donald Trump,REP,264,True,16033,ID,570,507,29.6,1077,47.07520891364902,44.2839184961641,-112.3512463932217,red
1332,Idaho,Clearwater County,Donald Trump,REP,3453,True,16035,ID,4790,3850,50.2,8640,44.56018518518518,46.67364381877157,-115.6566840809516,red
1339,Idaho,Custer County,Donald Trump,REP,2089,True,16037,ID,2165,1976,53.3,4141,47.71794252595991,44.24112590596943,-114.2817280975178,red
1346,Idaho,Elmore County,Donald Trump,REP,7246,True,16039,ID,13858,12575,31.9,26433,47.57310937086218,43.353955143058585,-115.46929719662232,red
1353,Idaho,Franklin County,Donald Trump,REP,5845,True,16041,ID,6787,6492,33.4,13279,48.88922358611341,42.1810993823498,-111.8131968139563,red
1361,Idaho,Fremont County,Donald Trump,REP,5548,True,16043,ID,6766,6199,36.8,12965,47.81334361743155,44.22879172803202,-111.48194033762113,red
1368,Idaho,Gem County,Donald Trump,REP,7951,True,16045,ID,8354,8698,45.1,17052,51.00867933380249,44.06154619190838,-116.39751661550372,red
1375,Idaho,Gooding County,Donald Trump,REP,4659,True,16047,ID,7911,7258,37.8,15169,47.84758388819302,42.97102592237642,-114.81153827830832,red
1382,Idaho,Idaho County,Donald Trump,REP,7826,True,16049,ID,8537,7800,50.0,16337,47.74438391381526,45.84406963114124,-115.46750875765208,red
1389,Idaho,Jefferson County,Donald Trump,REP,12099,True,16051,ID,14295,13674,31.2,27969,48.88984232543173,43.82015471609615,-112.31130823310612,red
1396,Idaho,Jerome County,Donald Trump,REP,5734,True,16053,ID,11801,11630,32.7,23431,49.63509880073407,42.689875957030544,-114.26392555344331,red
1403,Idaho,Kootenai County,Donald Trump,REP,62837,True,16055,ID,75890,77715,40.2,153605,50.59405618306696,47.67437462572388,-116.70182621419232,red
1411,Idaho,Latah County,Joe Biden,DEM,10236,True,16057,ID,19894,19345,28.3,39239,49.30044088789215,46.81617003676458,-116.71168186657472,blue
1418,Idaho,Lemhi County,Donald Trump,REP,3592,True,16059,ID,3948,3850,52.3,7798,49.371633752244165,44.9432557461301,-113.9332520150922,red
1426,Idaho,Lewis County,Donald Trump,REP,1489,True,16061,ID,1911,1934,48.3,3845,50.29908972691808,46.237000971122,-116.42631505924324,red
1433,Idaho,Lincoln County,Donald Trump,REP,1469,True,16063,ID,2766,2555,35.0,5321,48.01728998308589,43.00237269629252,-114.13827390348872,red
1440,Idaho,Madison County,Donald Trump,REP,13559,True,16065,ID,19529,19176,23.4,38705,49.54398656504328,43.78414736067104,-111.65923422083544,red
1447,Idaho,Minidoka County,Donald Trump,REP,6265,True,16067,ID,10377,10238,35.2,20615,49.66286684453068,42.85429247244846,-113.63747008364714,red
1454,Idaho,Nez Perce County,Donald Trump,REP,13738,True,16069,ID,19758,20397,40.9,40155,50.79566679118416,46.326815531052326,-116.75024312060062,red
1461,Idaho,Oneida County,Donald Trump,REP,2148,True,16071,ID,2083,2243,37.9,4326,51.84928340268146,42.1949744051421,-112.53936630028448,red
1468,Idaho,Owyhee County,Donald Trump,REP,3819,True,16073,ID,5874,5581,38.4,11455,48.72108249672632,42.58149963776419,-116.16991543684432,red
1475,Idaho,Payette County,Donald Trump,REP,8862,True,16075,ID,11470,11571,39.9,23041,50.21917451499501,44.00675700258795,-116.760821112899,red
1482,Idaho,Power County,Donald Trump,REP,2116,True,16077,ID,3781,3932,37.7,7713,50.97886684817839,42.693644414612734,-112.84066931679524,red
1490,Idaho,Shoshone County,Donald Trump,REP,4216,True,16079,ID,6267,6259,47.4,12526,49.968066421842565,47.352940813146894,-115.89236293560565,red
1497,Idaho,Teton County,Joe Biden,DEM,3318,True,16081,ID,5887,5193,36.6,11080,46.868231046931406,43.75944550159856,-111.20762183167244,blue
1504,Idaho,Twin Falls County,Donald Trump,REP,25897,True,16083,ID,41204,42462,34.7,83666,50.75179881911409,42.35596961880623,-114.66715073308558,red
1512,Idaho,Valley County,Donald Trump,REP,3947,True,16085,ID,5486,4915,48.7,10401,47.2550716277281,44.76660705705652,-115.56633740420315,red
1519,Idaho,Washington County,Donald Trump,REP,4154,True,16087,ID,4966,5059,45.4,10025,50.46384039900249,44.452423819640416,-116.78473628222136,red
1527,Illinois,Adams County,Donald Trump,REP,24220,True,17001,IL,32481,33946,41.3,66427,51.10271425775663,39.98787833459664,-91.18855698686085,red
1534,Illinois,Alexander County,Donald Trump,REP,1486,True,17003,IL,3104,3428,42.8,6532,52.48009797917943,37.191519120097794,-89.33756197374385,red
1541,Illinois,Bond County,Donald Trump,REP,5625,True,17005,IL,8587,8125,41.3,16712,48.61775969363332,38.88683305359005,-89.43554636928486,red
1548,Illinois,Boone County,Donald Trump,REP,13883,True,17007,IL,26830,26776,38.4,53606,49.9496325038242,42.32307877435641,-88.82338302966701,red
1555,Illinois,Brown County,Donald Trump,REP,1931,True,17009,IL,4238,2437,39.0,6675,36.50936329588015,39.961810519701096,-90.75041255823078,red
1562,Illinois,Bureau County,Donald Trump,REP,10411,True,17011,IL,16437,16944,44.0,33381,50.759414037925765,41.40412582926175,-89.52866709484049,red
1569,Illinois,Calhoun County,Donald Trump,REP,2046,True,17013,IL,2435,2423,46.7,4858,49.876492383697,39.16924303428719,-90.66753073520552,red
1576,Illinois,Carroll County,Donald Trump,REP,5105,True,17015,IL,7229,7333,47.9,14562,50.35709380579591,42.06868734214896,-89.93439024723124,red
1583,Illinois,Cass County,Donald Trump,REP,3625,True,17017,IL,6353,6312,39.7,12665,49.83813659692065,39.97354523915264,-90.24740080483882,red
1590,Illinois,Champaign County,Joe Biden,DEM,57067,True,17019,IL,104513,104935,29.9,209448,50.10074099537832,40.14009650770477,-88.19916000746896,blue
1597,Illinois,Christian County,Donald Trump,REP,11563,True,17021,IL,16818,16413,43.2,33231,49.39062923174144,39.54583198530187,-89.2772528468795,red
1604,Illinois,Clark County,Donald Trump,REP,6226,True,17023,IL,7824,8012,43.0,15836,50.59358423844406,39.33359041234609,-87.78771905509868,red
1611,Illinois,Clay County,Donald Trump,REP,5629,True,17025,IL,6586,6752,42.7,13338,50.62228220122957,38.754160393019816,-88.49022976602164,red
1618,Illinois,Clinton County,Donald Trump,REP,14304,True,17027,IL,19551,18077,40.2,37628,48.04135218454342,38.60645250760866,-89.42248618066246,red
1625,Illinois,Coles County,Donald Trump,REP,14037,True,17029,IL,24999,26737,35.2,51736,51.67968145971857,39.52027962074658,-88.22179644067498,red
1632,Illinois,Cook County,Joe Biden,DEM,1725973,True,17031,IL,2534640,2689079,36.6,5223719,51.47824758567603,41.84012633109752,-87.8168306216394,blue
1639,Illinois,Crawford County,Donald Trump,REP,7043,True,17033,IL,9910,9178,42.0,19088,48.08256496227997,39.00269711288796,-87.7595614069562,red
1646,Illinois,Cumberland County,Donald Trump,REP,4601,True,17035,IL,5455,5410,42.6,10865,49.79291302346986,39.273341866330895,-88.24018523334577,red
1653,Illinois,DeKalb County,Joe Biden,DEM,24643,True,17037,IL,51580,52620,31.0,104200,50.49904030710173,41.8935293758552,-88.77031406180186,blue
1660,Illinois,De Witt County,Donald Trump,REP,5632,True,17039,IL,8015,8027,43.1,16042,50.03740182022192,40.17461502485114,-88.90407554578636,red
1667,Illinois,Douglas County,Donald Trump,REP,6227,True,17041,IL,9748,9966,37.9,19714,50.552906563863246,39.76945694039876,-88.21737066595287,red
1674,Illinois,DuPage County,Joe Biden,DEM,281222,True,17043,IL,457178,474565,39.1,931743,50.9330362557057,41.85195267810277,-88.08559582772857,blue
1681,Illinois,Edgar County,Donald Trump,REP,6193,True,17045,IL,8617,8922,44.6,17539,50.86949084896516,39.678551888750505,-87.7455924670323,red
1688,Illinois,Edwards County,Donald Trump,REP,2833,True,17047,IL,3231,3276,43.3,6507,50.345781466113415,38.41654373105808,-88.05327845497358,red
1695,Illinois,Effingham County,Donald Trump,REP,15006,True,17049,IL,16971,17203,39.1,34174,50.339439339849015,39.05979760561169,-88.58986009711442,red
1702,Illinois,Fayette County,Donald Trump,REP,8055,True,17051,IL,11580,10144,41.5,21724,46.69489965015651,39.00018312262058,-89.02413055392712,red
1709,Illinois,Ford County,Donald Trump,REP,5048,True,17053,IL,6616,6782,43.0,13398,50.61949544708165,40.59716807101521,-88.2232955118473,red
1716,Illinois,Franklin County,Donald Trump,REP,13622,True,17055,IL,19285,19842,42.3,39127,50.711784701101536,37.9922777854251,-88.92413725856049,red
1723,Illinois,Fulton County,Donald Trump,REP,9867,True,17057,IL,18496,16922,43.0,35418,47.77796600598565,40.47278780200852,-90.20746962998112,red
1730,Illinois,Gallatin County,Donald Trump,REP,2019,True,17059,IL,2472,2685,45.3,5157,52.065154159395,37.76274363969468,-88.23044404237568,red
1737,Illinois,Greene County,Donald Trump,REP,4770,True,17061,IL,6668,6550,42.9,13218,49.55363897715237,39.35621702657206,-90.39046153076008,red
1744,Illinois,Grundy County,Donald Trump,REP,16523,True,17063,IL,25241,25268,37.6,50509,50.02672790987744,41.28511111938728,-88.41846873638005,red
1751,Illinois,Hamilton County,Donald Trump,REP,3432,True,17065,IL,4018,4203,44.1,8221,51.12516725459189,38.08154030998644,-88.53910015803606,red
1758,Illinois,Hancock County,Donald Trump,REP,6906,True,17067,IL,9008,9104,46.0,18112,50.265017667844525,40.40374091628328,-91.16474814074412,red
1765,Illinois,Hardin County,Donald Trump,REP,1691,True,17069,IL,1976,2033,46.2,4009,50.71090047393365,37.51821568376128,-88.26687347185381,red
1772,Illinois,Henderson County,Donald Trump,REP,2394,True,17071,IL,3369,3515,49.7,6884,51.06042998256828,40.81803657704125,-90.9251032856442,red
1779,Illinois,Henry County,Donald Trump,REP,15300,True,17073,IL,24536,24928,43.1,49464,50.39624777616044,41.35313698817153,-90.13143102263491,red
1786,Illinois,Iroquois County,Donald Trump,REP,10877,True,17075,IL,13751,14418,44.5,28169,51.1839255919628,40.74724323533175,-87.8243385145013,red
1793,Illinois,Jackson County,Joe Biden,DEM,11181,True,17077,IL,28989,29562,31.6,58551,50.48931700568736,37.78514443322731,-89.38212877276194,blue
1800,Illinois,Jasper County,Donald Trump,REP,4494,True,17079,IL,4809,4789,42.8,9598,49.89581162742238,39.01006378639527,-88.15384992138468,red
1807,Illinois,Jefferson County,Donald Trump,REP,12476,True,17081,IL,19567,18602,41.0,38169,48.735885142393045,38.30051395183354,-88.92401752212261,red
1814,Illinois,Jersey County,Donald Trump,REP,8712,True,17083,IL,10841,11228,42.7,22069,50.876795505007024,39.0856840797399,-90.35668523734932,red
1821,Illinois,Jo Daviess County,Donald Trump,REP,7166,True,17085,IL,10956,10878,49.7,21834,49.8213794998626,42.36575464799677,-90.21249871694928,red
1828,Illinois,Johnson County,Donald Trump,REP,5059,True,17087,IL,7015,5587,43.2,12602,44.334232661482304,37.459629315302514,-88.88092569353789,red
1835,Illinois,Kane County,Joe Biden,DEM,130166,True,17089,IL,264211,266628,37.0,530839,50.227658480254846,41.93884402524312,-88.42863910352412,blue
1842,Illinois,Kankakee County,Donald Trump,REP,28532,True,17091,IL,54615,56446,37.6,111061,50.82432176911787,41.13771025937167,-87.86183129275948,red
1849,Illinois,Kendall County,Joe Biden,DEM,33168,True,17093,IL,61761,62865,34.9,124626,50.44292523229503,41.590565477890486,-88.4287969179681,blue
1856,Illinois,Knox County,Donald Trump,REP,12009,True,17095,IL,25743,25256,42.1,50999,49.52253965764034,40.931837741443495,-90.21323705405705,red
1863,Illinois,Lake County,Joe Biden,DEM,204032,True,17097,IL,351343,352276,38.2,703619,50.06630008569979,42.323339937272166,-88.00365402815346,blue
1870,Illinois,LaSalle County,Donald Trump,REP,30113,True,17099,IL,55400,55001,41.8,110401,49.81929511508048,41.343994549307226,-88.88594497987027,red
1877,Illinois,Lawrence County,Donald Trump,REP,4886,True,17101,IL,8919,7270,41.0,16189,44.90703564148496,38.71995569643991,-87.72678065245977,red
1884,Illinois,Lee County,Donald Trump,REP,9630,True,17103,IL,18326,16201,43.4,34527,46.92269817823732,41.746193936926566,-89.30038807060235,red
1891,Illinois,Livingston County,Donald Trump,REP,12208,True,17105,IL,18614,17710,42.0,36324,48.75564365158022,40.89157090415401,-88.55771847078897,red
1898,Illinois,Logan County,Donald Trump,REP,9136,True,17107,IL,14183,15024,40.4,29207,51.43972335399049,40.12455659076004,-89.36753851763163,red
1905,Illinois,McDonough County,Donald Trump,REP,7027,True,17109,IL,15009,15866,32.1,30875,51.38785425101214,40.45619404065306,-90.67791394623414,red
1912,Illinois,McHenry County,Donald Trump,REP,82260,True,17111,IL,153382,154407,40.2,307789,50.16651017417777,42.32442428494423,-88.45233584119063,red
1919,Illinois,McLean County,Joe Biden,DEM,43933,True,17113,IL,84245,88974,32.9,173219,51.36503501348004,40.49087526607274,-88.84732725314582,blue
1926,Illinois,Macon County,Donald Trump,REP,28589,True,17115,IL,51062,55450,41.3,106512,52.05986179960943,39.85998989241613,-88.96155997907879,red
1933,Illinois,Macoupin County,Donald Trump,REP,16153,True,17117,IL,22602,23117,43.6,45719,50.56322316761084,39.2610041650631,-89.9244317102756,red
1940,Illinois,Madison County,Donald Trump,REP,76031,True,17119,IL,129718,135952,40.1,265670,51.17326005947229,38.829867178573,-89.90513714788156,red
1947,Illinois,Marion County,Donald Trump,REP,12678,True,17121,IL,18726,19358,42.1,38084,50.829744774708544,38.64959343207136,-88.91898306643903,red
1954,Illinois,Marshall County,Donald Trump,REP,4197,True,17123,IL,5874,5920,46.3,11794,50.19501441410888,41.03315746309963,-89.34478050465367,red
1961,Illinois,Mason County,Donald Trump,REP,4654,True,17125,IL,6838,6940,45.3,13778,50.37015532007548,40.23963203037356,-89.91683127841236,red
1968,Illinois,Massac County,Donald Trump,REP,4997,True,17127,IL,6794,7636,43.8,14430,52.91753291753292,37.21896984324482,-88.7077219383499,red
1975,Illinois,Menard County,Donald Trump,REP,4764,True,17129,IL,6043,6324,42.9,12367,51.13608797606533,40.02739238374484,-89.8021918483924,red
1982,Illinois,Mercer County,Donald Trump,REP,5418,True,17131,IL,7798,7895,44.8,15693,50.30905499267189,41.205339100789686,-90.74144591818477,red
1989,Illinois,Monroe County,Donald Trump,REP,14142,True,17133,IL,16691,17245,42.6,33936,50.816242338519565,38.2784583841484,-90.17728332848364,red
1996,Illinois,Montgomery County,Donald Trump,REP,9544,True,17135,IL,15145,13864,43.1,29009,47.79206453169706,39.23103311855495,-89.47888817792764,red
2003,Illinois,Morgan County,Donald Trump,REP,9950,True,17137,IL,17298,17128,41.5,34426,49.75309359205252,39.715556136367766,-90.20146645851752,red
2010,Illinois,Moultrie County,Donald Trump,REP,4964,True,17139,IL,7172,7531,40.3,14703,51.22083928449976,39.64147353663316,-88.61929701812147,red
2017,Illinois,Ogle County,Donald Trump,REP,16248,True,17141,IL,25614,25714,42.4,51328,50.097412718204495,42.04264690306141,-89.32064357576418,red
2024,Illinois,Peoria County,Joe Biden,DEM,43578,True,17143,IL,89387,95076,37.2,184463,51.54204366187257,40.78804569197607,-89.7599627388572,blue
2031,Illinois,Perry County,Donald Trump,REP,7313,True,17145,IL,11767,9617,41.7,21384,44.972876917321365,38.08375244619143,-89.36700209948503,red
2038,Illinois,Piatt County,Donald Trump,REP,6248,True,17147,IL,8080,8347,43.0,16427,50.812686430876,40.010340074684684,-88.5911064338601,red
2045,Illinois,Pike County,Donald Trump,REP,6332,True,17149,IL,7815,7939,42.3,15754,50.39355084423004,39.62250377745868,-90.88629694348212,red
2052,Illinois,Pope County,Donald Trump,REP,1722,True,17151,IL,2349,1900,53.7,4249,44.7164038597317,37.412694362495394,-88.5615235650068,red
2059,Illinois,Pulaski County,Donald Trump,REP,1699,True,17153,IL,2747,2864,44.1,5611,51.04259490286937,37.22288260373905,-89.12658246430118,red
2066,Illinois,Putnam County,Donald Trump,REP,1993,True,17155,IL,2959,2787,47.9,5746,48.50330664810303,41.20447691510005,-89.28576115292618,red
2073,Illinois,Randolph County,Donald Trump,REP,11076,True,17157,IL,18019,14527,42.0,32546,44.63528544214343,38.05210441375564,-89.82521230827662,red
2080,Illinois,Richland County,Donald Trump,REP,6089,True,17159,IL,7809,8072,41.9,15881,50.828033499149925,38.71241555982673,-88.08510899511614,red
2087,Illinois,Rock Island County,Joe Biden,DEM,36691,True,17161,IL,71596,73679,40.1,145275,50.716916193426265,41.46732019628519,-90.56737501858308,blue
2094,Illinois,St. Clair County,Joe Biden,DEM,68325,True,17163,IL,127237,136226,38.3,263463,51.70593214227425,38.47033002908368,-89.92838112467138,blue
2101,Illinois,Saline County,Donald Trump,REP,8103,True,17165,IL,11962,12269,42.0,24231,50.63348603029178,37.753172451338926,-88.54075228495117,red
2108,Illinois,Sangamon County,Donald Trump,REP,53485,True,17167,IL,94876,102785,40.0,197661,52.00064757337057,39.75816618198051,-89.65887689980788,red
2115,Illinois,Schuyler County,Donald Trump,REP,2773,True,17169,IL,3701,3363,45.8,7064,47.607587768969424,40.15802994896193,-90.6150735384308,red
2122,Illinois,Scott County,Donald Trump,REP,2114,True,17171,IL,2460,2587,44.1,5047,51.2581731721815,39.644124026969,-90.47470012895272,red
2129,Illinois,Shelby County,Donald Trump,REP,9426,True,17173,IL,10791,11041,44.8,21832,50.57255404910224,39.39113855185178,-88.80553885746764,red
2136,Illinois,Stark County,Donald Trump,REP,2004,True,17175,IL,2716,2784,45.1,5500,50.61818181818182,41.09333902551173,-89.7974727579744,red
2143,Illinois,Stephenson County,Donald Trump,REP,12521,True,17177,IL,21986,23447,45.1,45433,51.60786212664803,42.35172178233953,-89.6623640191516,red
2150,Illinois,Tazewell County,Donald Trump,REP,42513,True,17179,IL,65987,67865,40.9,133852,50.70152108298718,40.50752986084522,-89.51341811337454,red
2157,Illinois,Union County,Donald Trump,REP,6161,True,17181,IL,8592,8535,43.7,17127,49.83359607637065,37.471232788925136,-89.25511205433808,red
2164,Illinois,Vermilion County,Donald Trump,REP,20725,True,17183,IL,38967,39440,40.3,78407,50.30163123190532,40.183416435897776,-87.7328147124891,red
2171,Illinois,Wabash County,Donald Trump,REP,4237,True,17185,IL,5666,5907,43.6,11573,51.04121662490279,38.44604921071684,-87.84430346847722,red
2178,Illinois,Warren County,Donald Trump,REP,4676,True,17187,IL,8353,8985,39.3,17338,51.82258622678509,40.84881676011244,-90.61501039462986,red
2185,Illinois,Washington County,Donald Trump,REP,6115,True,17189,IL,7108,7047,43.4,14155,49.78452843518191,38.35216945067585,-89.4104700483041,red
2192,Illinois,Wayne County,Donald Trump,REP,7176,True,17191,IL,8141,8346,43.3,16487,50.62170194698854,38.42957655137391,-88.42556023715997,red
2199,Illinois,White County,Donald Trump,REP,5791,True,17193,IL,6882,7143,44.1,14025,50.93048128342246,38.08747726000744,-88.1795551880565,red
2206,Illinois,Whiteside County,Donald Trump,REP,14527,True,17195,IL,27799,28597,43.2,56396,50.70749698560182,41.75627873396718,-89.91409401353253,red
2213,Illinois,Will County,Joe Biden,DEM,183915,True,17197,IL,341816,346881,37.6,688697,50.36772339650093,41.44504270382514,-87.97864242148339,blue
2220,Illinois,Williamson County,Donald Trump,REP,22801,True,17199,IL,33607,33692,40.9,67299,50.06315101264506,37.73025419311814,-88.92991758511597,red
2227,Illinois,Winnebago County,Joe Biden,DEM,64056,True,17201,IL,139748,146426,39.6,286174,51.166772662785576,42.33625892217973,-89.16086010839521,blue
2234,Illinois,Woodford County,Donald Trump,REP,14799,True,17203,IL,19343,19474,40.0,38817,50.16874050029626,40.78821820261186,-89.21112229265579,red
2241,Indiana,Adams County,Donald Trump,REP,10686,True,18001,IN,17561,17634,33.4,35195,50.10370791305583,40.74565523116364,-84.9366159790589,red
2245,Indiana,Allen County,Donald Trump,REP,92083,True,18003,IN,180669,189347,35.8,370016,51.17265199342731,41.09088453099658,-85.06657404141417,red
2249,Indiana,Bartholomew County,Donald Trump,REP,22410,True,18005,IN,41150,40743,37.7,81893,49.75150501263844,39.20595128349802,-85.89759073009328,red
2253,Indiana,Benton County,Donald Trump,REP,3007,True,18007,IN,4326,4341,40.5,8667,50.08653513326411,40.60625371339157,-87.31093166056296,red
2257,Indiana,Blackford County,Donald Trump,REP,3841,True,18009,IN,6037,6092,44.3,12129,50.226729326407785,40.47363682229351,-85.32482248007156,red
2261,Indiana,Boone County,Donald Trump,REP,22351,True,18011,IN,31750,32571,38.0,64321,50.638205251784015,40.05079933933479,-86.46870625463869,red
2265,Indiana,Brown County,Donald Trump,REP,5777,True,18013,IN,7441,7593,49.2,15034,50.505520819475855,39.19623153578478,-86.22737678006371,red
2268,Indiana,Carroll County,Donald Trump,REP,7086,True,18015,IN,10034,9960,42.8,19994,49.814944483345,40.582847207631175,-86.56349721619391,red
2272,Indiana,Cass County,Donald Trump,REP,10552,True,18017,IN,19082,19002,40.8,38084,49.89496901585968,40.76153986764884,-86.34598335434868,red
2276,Indiana,Clark County,Donald Trump,REP,33668,True,18019,IN,56359,59343,38.9,115702,51.28951962800989,38.47717759094238,-85.70729854416508,red
2280,Indiana,Clay County,Donald Trump,REP,9499,True,18021,IN,12935,13333,40.9,26268,50.75757575757576,39.39279542882983,-87.11576459254664,red
2284,Indiana,Clinton County,Donald Trump,REP,9334,True,18023,IN,15986,16315,38.2,32301,50.50927215875669,40.30169517995556,-86.47514275048589,red
2288,Indiana,Crawford County,Donald Trump,REP,3483,True,18025,IN,5367,5214,43.6,10581,49.27700595406861,38.29238156814547,-86.45172410530243,red
2292,Indiana,Daviess County,Donald Trump,REP,9576,True,18027,IN,16634,16303,34.7,32937,49.497525579135925,38.7024060738727,-87.0720446045788,red
2296,Indiana,Dearborn County,Donald Trump,REP,19528,True,18029,IN,24764,24737,42.7,49501,49.97272782368033,39.14517193438369,-84.97324273786923,red
2300,Indiana,Decatur County,Donald Trump,REP,9575,True,18031,IN,13202,13350,38.9,26552,50.27869840313347,39.307001474391214,-85.50110907630223,red
2304,Indiana,DeKalb County,Donald Trump,REP,14237,True,18033,IN,21307,21397,39.1,42704,50.105376545522674,41.397570214714456,-84.99905942488385,red
2308,Indiana,Delaware County,Donald Trump,REP,26827,True,18035,IN,55743,59873,35.4,115616,51.78608497093828,40.22754556356436,-85.39689983581057,red
2312,Indiana,Dubois County,Donald Trump,REP,15033,True,18037,IN,21048,21370,40.4,42418,50.37955584893206,38.36427303649641,-86.87981142676438,red
2316,Indiana,Elkhart County,Donald Trump,REP,46972,True,18039,IN,100713,102891,35.5,203604,50.53486179053457,41.59739348654994,-85.85873470418164,red
2320,Indiana,Fayette County,Donald Trump,REP,7755,True,18041,IN,11474,11785,42.6,23259,50.668558407498175,39.64002907719432,-85.17876388409131,red
2324,Indiana,Floyd County,Donald Trump,REP,23400,True,18043,IN,37135,39674,39.9,76809,51.65280110403728,38.31893113704578,-85.90681259382414,red
2328,Indiana,Fountain County,Donald Trump,REP,6154,True,18045,IN,8251,8235,43.1,16486,49.95147397792066,40.120898390231886,-87.24197108216225,red
2332,Indiana,Franklin County,Donald Trump,REP,9691,True,18047,IN,11426,11416,42.0,22842,49.978110498205055,39.41486847890327,-85.06014333272965,red
2336,Indiana,Fulton County,Donald Trump,REP,6694,True,18049,IN,9962,10250,41.3,20212,50.71244805066297,41.04697762486567,-86.2635370243981,red
2340,Indiana,Gibson County,Donald Trump,REP,11817,True,18051,IN,16848,16748,40.3,33596,49.85117275866175,38.31185418110544,-87.58461346877569,red
2344,Indiana,Grant County,Donald Trump,REP,18543,True,18053,IN,31935,35009,40.3,66944,52.29594885277247,40.51580008293558,-85.65471601021068,red
2348,Indiana,Greene County,Donald Trump,REP,11103,True,18055,IN,16033,16262,42.9,32295,50.354544047066106,39.03634430785281,-86.96204482196728,red
2352,Indiana,Hamilton County,Donald Trump,REP,101587,True,18057,IN,154532,161563,36.9,316095,51.112165646403774,40.072479549464575,-86.05202734084591,red
2356,Indiana,Hancock County,Donald Trump,REP,28996,True,18059,IN,36255,37575,39.9,73830,50.8939455505892,39.82355246329077,-85.77325851837486,red
2360,Indiana,Harrison County,Donald Trump,REP,14565,True,18061,IN,19875,19837,42.5,39712,49.95215551974214,38.19517152505245,-86.11130682918797,red
2364,Indiana,Hendricks County,Donald Trump,REP,53802,True,18063,IN,80391,80549,37.7,160940,50.04908661613023,39.76951990450325,-86.50997023079225,red
2368,Indiana,Henry County,Donald Trump,REP,15043,True,18065,IN,25391,23092,42.2,48483,47.629065858135846,39.93106319830469,-85.39642519959389,red
2372,Indiana,Howard County,Donald Trump,REP,26449,True,18067,IN,39852,42535,41.7,82387,51.62829087113258,40.48360753227319,-86.1169593860795,red
2376,Indiana,Huntington County,Donald Trump,REP,13147,True,18069,IN,17875,18503,40.7,36378,50.86315905217439,40.82921962480348,-85.48813053437355,red
2380,Indiana,Jackson County,Donald Trump,REP,14555,True,18071,IN,21822,22116,38.7,43938,50.334562337839685,38.906416400985336,-86.03753972835919,red
2384,Indiana,Jasper County,Donald Trump,REP,11383,True,18073,IN,16699,16750,39.9,33449,50.07623546294359,41.02298757177246,-87.1161183401252,red
2388,Indiana,Jay County,Donald Trump,REP,6361,True,18075,IN,10398,10595,40.0,20993,50.46920402038775,40.43795740161875,-85.00570481094738,red
2392,Indiana,Jefferson County,Donald Trump,REP,9663,True,18077,IN,15333,16904,40.5,32237,52.4366411266557,38.78578871740532,-85.43855043504226,red
2396,Indiana,Jennings County,Donald Trump,REP,9490,True,18079,IN,13925,13802,39.7,27727,49.77819453961842,38.996923297558006,-85.62803435540019,red
2400,Indiana,Johnson County,Donald Trump,REP,51219,True,18081,IN,74349,77215,37.4,151564,50.945475178802354,39.489962242061225,-86.10159622311738,red
2404,Indiana,Knox County,Donald Trump,REP,11655,True,18083,IN,18949,18460,38.0,37409,49.34641396455399,38.6890699422532,-87.4180246740044,red
2408,Indiana,Kosciusko County,Donald Trump,REP,26499,True,18085,IN,39264,39542,38.0,78806,50.17638250894601,41.24407150732547,-85.86071564344066,red
2412,Indiana,LaGrange County,Donald Trump,REP,8110,True,18087,IN,19752,19190,31.4,38942,49.27841405166658,41.64262145134996,-85.42649136538262,red
2416,Indiana,Lake County,Joe Biden,DEM,124870,True,18089,IN,235515,251334,38.7,486849,51.62463104576573,41.41713854420433,-87.38221505948651,blue
2420,Indiana,LaPorte County,Donald Trump,REP,25997,True,18091,IN,57068,53484,40.4,110552,48.37904334611766,41.54598753848309,-86.73996089293485,red
2424,Indiana,Lawrence County,Donald Trump,REP,15601,True,18093,IN,22558,23061,42.8,45619,50.55130537714548,38.84116042551731,-86.48345736328001,red
2428,Indiana,Madison County,Donald Trump,REP,31215,True,18095,IN,64707,64798,40.3,129505,50.03513377861859,40.161610412315575,-85.71935636349004,red
2432,Indiana,Marion County,Joe Biden,DEM,247772,True,18097,IN,455007,489516,34.4,944523,51.82679511245358,39.781711193617234,-86.1384702727316,blue
2436,Indiana,Marshall County,Donald Trump,REP,13844,True,18099,IN,23174,23421,40.1,46595,50.26504989805773,41.324840167674886,-86.26175726749923,red
2440,Indiana,Martin County,Donald Trump,REP,4029,True,18101,IN,5155,5055,42.7,10210,49.51028403525955,38.70801365526136,-86.8030733714071,red
2444,Indiana,Miami County,Donald Trump,REP,10925,True,18103,IN,19084,16817,40.0,35901,46.842706331299965,40.769456371656574,-86.04504973375286,red
2448,Indiana,Monroe County,Joe Biden,DEM,39861,True,18105,IN,72416,72987,29.3,145403,50.19635083182603,39.160910272184005,-86.52312652398106,blue
2452,Indiana,Montgomery County,Donald Trump,REP,12659,True,18107,IN,19442,18834,40.5,38276,49.2057686278608,40.04039733567343,-86.89329763926185,red
2456,Indiana,Morgan County,Donald Trump,REP,27512,True,18109,IN,34447,35280,41.4,69727,50.59732958538299,39.4815696268052,-86.44623079230766,red
2460,Indiana,Newton County,Donald Trump,REP,4942,True,18111,IN,7004,7014,42.9,14018,50.03566842630903,40.95583812396976,-87.39757007530145,red
2464,Indiana,Noble County,Donald Trump,REP,14195,True,18113,IN,23844,23607,38.7,47451,49.75026869823608,41.398602836637686,-85.41749644845041,red
2468,Indiana,Ohio County,Donald Trump,REP,2392,True,18115,IN,2918,2969,47.5,5887,50.433157805333785,38.950078790921296,-84.9650911161703,red
2472,Indiana,Orange County,Donald Trump,REP,6432,True,18117,IN,9727,9820,42.1,19547,50.23788816698215,38.54179057221896,-86.49506132380635,red
2476,Indiana,Owen County,Donald Trump,REP,7286,True,18119,IN,10628,10250,44.9,20878,49.09474087556279,39.31280489945843,-86.83767051132983,red
2480,Indiana,Parke County,Donald Trump,REP,5398,True,18121,IN,8211,8785,41.8,16996,51.688632619439865,39.77363464069859,-87.20637911496482,red
2484,Indiana,Perry County,Donald Trump,REP,5345,True,18123,IN,10222,8919,42.2,19141,46.59631158246695,38.07965285417815,-86.63802268360243,red
2488,Indiana,Pike County,Donald Trump,REP,4692,True,18125,IN,6256,6155,43.7,12411,49.59310289259528,38.398780033004016,-87.23216276062624,red
2492,Indiana,Porter County,Donald Trump,REP,45008,True,18127,IN,83212,84829,39.5,168041,50.48113258073923,41.46054623322723,-87.06725879780336,red
2496,Indiana,Posey County,Donald Trump,REP,9206,True,18129,IN,12787,12802,42.3,25589,50.029309468912416,38.02181793172545,-87.86845961108344,red
2500,Indiana,Pulaski County,Donald Trump,REP,4246,True,18131,IN,6404,6256,41.2,12660,49.41548183254344,41.04185367747528,-86.69879738685349,red
2504,Indiana,Putnam County,Donald Trump,REP,12278,True,18133,IN,19714,17845,37.9,37559,47.51191458771533,39.66628078271651,-86.844995992361,red
2508,Indiana,Randolph County,Donald Trump,REP,8312,True,18135,IN,12269,12807,42.4,25076,51.072738873823575,40.1575877429863,-85.0114427391063,red
2512,Indiana,Ripley County,Donald Trump,REP,11261,True,18137,IN,14077,14348,40.8,28425,50.47669305189094,39.10347556529025,-85.26236518015438,red
2516,Indiana,Rush County,Donald Trump,REP,6035,True,18139,IN,8185,8519,41.6,16704,50.99976053639846,39.61996981088351,-85.46576014729358,red
2520,Indiana,St. Joseph County,Joe Biden,DEM,59896,True,18141,IN,130832,138408,36.5,269240,51.40692319120488,41.61665473590719,-86.28985054577107,blue
2524,Indiana,Scott County,Donald Trump,REP,7328,True,18143,IN,11670,12073,40.7,23743,50.84867118729731,38.68507421898323,-85.74748028616825,red
2528,Indiana,Shelby County,Donald Trump,REP,14568,True,18145,IN,21941,22458,41.0,44399,50.582220320277486,39.523715306495326,-85.79166262943131,red
2532,Indiana,Spencer County,Donald Trump,REP,7357,True,18147,IN,10363,10163,43.6,20526,49.51281301763617,38.014096395972985,-87.00766950958703,red
2536,Indiana,Starke County,Donald Trump,REP,7466,True,18149,IN,11302,11639,41.6,22941,50.73449282943202,41.28093741356948,-86.64762763359609,red
2540,Indiana,Steuben County,Donald Trump,REP,11327,True,18151,IN,17542,16932,43.2,34474,49.1152752799211,41.64389192707598,-85.00085915878145,red
2544,Indiana,Sullivan County,Donald Trump,REP,6691,True,18153,IN,11174,9618,41.0,20792,46.25817622162371,39.08884212786491,-87.41471967132526,red
2548,Indiana,Switzerland County,Donald Trump,REP,3133,True,18155,IN,5504,5124,40.1,10628,48.21226947685359,38.82619748042333,-85.03700185185556,red
2552,Indiana,Tippecanoe County,Joe Biden,DEM,35017,True,18157,IN,96866,92428,28.0,189294,48.82774942681754,40.38861981090344,-86.89405932795191,blue
2556,Indiana,Tipton County,Donald Trump,REP,6110,True,18159,IN,7609,7609,44.9,15218,50.0,40.31134431513603,-86.05185146852709,red
2560,Indiana,Union County,Donald Trump,REP,2688,True,18161,IN,3514,3639,43.8,7153,50.87375926184817,39.62559478519447,-84.92513791015591,red
2564,Indiana,Vanderburgh County,Donald Trump,REP,41844,True,18163,IN,87676,93637,38.1,181313,51.64384241615328,38.02496059839477,-87.58581620626455,red
2568,Indiana,Vermillion County,Donald Trump,REP,5184,True,18165,IN,7809,7751,43.1,15560,49.81362467866324,39.853826991064,-87.46398211720657,red
2572,Indiana,Vigo County,Donald Trump,REP,24545,True,18167,IN,54705,52988,36.2,107693,49.20282655325787,39.4306355791122,-87.38997396415559,red
2576,Indiana,Wabash County,Donald Trump,REP,10762,True,18169,IN,15365,16266,42.2,31631,51.42423571812462,40.84564369759897,-85.79399878786931,red
2580,Indiana,Warren County,Donald Trump,REP,3401,True,18171,IN,4124,4123,44.5,8247,49.99393718928095,40.346937181849086,-87.35330188803933,red
2584,Indiana,Warrick County,Donald Trump,REP,21326,True,18173,IN,30409,31519,40.9,61928,50.89620204107996,38.09217364959559,-87.27208736549615,red
2588,Indiana,Washington County,Donald Trump,REP,9114,True,18175,IN,13892,13935,41.5,27827,50.07726308980487,38.59999799589367,-86.10530521704997,red
2592,Indiana,Wayne County,Donald Trump,REP,17567,True,18177,IN,32288,34325,40.9,66613,51.52898082956781,39.864382355355886,-85.00983824347364,red
2596,Indiana,Wells County,Donald Trump,REP,10855,True,18179,IN,13773,14174,39.8,27947,50.71742941997353,40.72918907332118,-85.22119400261002,red
2600,Indiana,White County,Donald Trump,REP,7957,True,18181,IN,12143,12074,41.9,24217,49.85753809307511,40.74975985544136,-86.86548809081866,red
2604,Indiana,Whitley County,Donald Trump,REP,12862,True,18183,IN,16702,16947,40.8,33649,50.36405242354899,41.13938040548212,-85.50512035141435,red
2608,Iowa,Adair County,Donald Trump,REP,2917,True,19001,IA,3516,3608,45.4,7124,50.6457046603032,41.33074048993052,-94.4709664054588,red
2618,Iowa,Adams County,Donald Trump,REP,1530,True,19003,IA,1854,1872,47.3,3726,50.24154589371981,41.02897522495552,-94.69916585870594,red
2628,Iowa,Allamakee County,Donald Trump,REP,4735,True,19005,IA,7045,6835,44.8,13880,49.24351585014409,43.28428239914959,-91.378053325693,red
2638,Iowa,Appanoose County,Donald Trump,REP,4512,True,19007,IA,6154,6356,45.4,12510,50.80735411670664,40.7431700905196,-92.8686187703517,red
2648,Iowa,Audubon County,Donald Trump,REP,2295,True,19009,IA,2758,2879,49.0,5637,51.073265921589496,41.684602025452975,-94.90581787645112,red
2658,Iowa,Benton County,Donald Trump,REP,9188,True,19011,IA,12783,12843,42.6,25626,50.11706860220089,42.08018645568502,-92.06574296651894,red
2668,Iowa,Black Hawk County,Joe Biden,DEM,35647,True,19013,IA,65309,67700,34.9,133009,50.89881135862987,42.47009068616707,-92.30882457369528,blue
2678,Iowa,Boone County,Donald Trump,REP,8695,True,19015,IA,13310,13089,41.8,26399,49.58142353877041,42.03650207443015,-93.93163339378236,red
2688,Iowa,Bremer County,Donald Trump,REP,8294,True,19017,IA,12274,12508,39.7,24782,50.472116859010576,42.77458652030272,-92.3180539317849,red
2698,Iowa,Buchanan County,Donald Trump,REP,6420,True,19019,IA,10451,10674,38.7,21125,50.52781065088757,42.47080624808688,-91.83784662943094,red
2708,Iowa,Buena Vista County,Donald Trump,REP,5056,True,19021,IA,10238,10022,35.2,20260,49.466929911154985,42.73549598809982,-95.15113459975645,red
2718,Iowa,Butler County,Donald Trump,REP,5542,True,19023,IA,7381,7354,44.1,14735,49.908381404818456,42.73156850708488,-92.79018091855625,red
2728,Iowa,Calhoun County,Donald Trump,REP,3689,True,19025,IA,5044,4736,45.1,9780,48.42535787321064,42.385185505883165,-94.6404036245246,red
2738,Iowa,Carroll County,Donald Trump,REP,7737,True,19027,IA,9988,10356,41.7,20344,50.904443570585926,42.03620789925285,-94.86056560381432,red
2748,Iowa,Cass County,Donald Trump,REP,4969,True,19029,IA,6547,6644,44.9,13191,50.36767492987643,41.3314998205152,-94.92783802566971,red
2758,Iowa,Cedar County,Donald Trump,REP,6161,True,19031,IA,9161,9284,42.0,18445,50.333423692057465,41.77232043897138,-91.1324311662992,red
2768,Iowa,Cerro Gordo County,Donald Trump,REP,12442,True,19033,IA,20850,22134,44.5,42984,51.49357900614182,43.08155752775132,-93.2608136360143,red
2778,Iowa,Cherokee County,Donald Trump,REP,4495,True,19035,IA,5796,5672,46.8,11468,49.459365190094175,42.73561393346282,-95.62381554894704,red
2788,Iowa,Chickasaw County,Donald Trump,REP,4308,True,19037,IA,6058,6041,44.3,12099,49.92974626002149,43.0600514755882,-92.31767550328888,red
2798,Iowa,Clarke County,Donald Trump,REP,3144,True,19039,IA,4689,4593,39.5,9282,49.48287007110537,41.029014285048746,-93.7851537010752,red
2808,Iowa,Clay County,Donald Trump,REP,6137,True,19041,IA,8051,8262,42.7,16313,50.64672347207748,43.08257225781066,-95.15093604388912,red
2818,Iowa,Clayton County,Donald Trump,REP,6106,True,19043,IA,8900,8772,47.1,17672,49.63784517881395,42.84472016820608,-91.3414292275032,red
2828,Iowa,Clinton County,Donald Trump,REP,13361,True,19045,IA,23126,24092,42.2,47218,51.02291499004616,41.89802867609232,-90.53196563427734,red
2838,Iowa,Crawford County,Donald Trump,REP,4854,True,19047,IA,8547,8585,37.8,17132,50.11090357226243,42.03720374512621,-95.38198703127549,red
2848,Iowa,Dallas County,Donald Trump,REP,27987,True,19049,IA,41367,42635,35.3,84002,50.75474393466822,41.68487011516291,-94.03977090170676,red
2858,Iowa,Davis County,Donald Trump,REP,3032,True,19051,IA,4398,4487,37.0,8885,50.500844119302194,40.74769343581546,-92.40971356477584,red
2868,Iowa,Decatur County,Donald Trump,REP,2615,True,19053,IA,4017,4027,36.4,8044,50.06215813028344,40.73769890818721,-93.78628400558628,red
2878,Iowa,Delaware County,Donald Trump,REP,6666,True,19055,IA,8689,8569,43.6,17258,49.65233514891644,42.4712119692007,-91.36733448667805,red
2888,Iowa,Des Moines County,Donald Trump,REP,10592,True,19057,IA,19313,20287,42.6,39600,51.22979797979797,40.92317786385232,-91.18147573534728,red
2898,Iowa,Dickinson County,Donald Trump,REP,7438,True,19059,IA,8515,8541,48.4,17056,50.07621951219512,43.37791095821516,-95.15088080785756,red
2908,Iowa,Dubuque County,Donald Trump,REP,27214,True,19061,IA,47744,49058,38.5,96802,50.67870498543419,42.46882113653326,-90.8824568896214,red
2918,Iowa,Emmet County,Donald Trump,REP,3265,True,19063,IA,4770,4781,42.4,9551,50.057585593131606,43.377943543605085,-94.67842860370595,red
2928,Iowa,Fayette County,Donald Trump,REP,6145,True,19065,IA,9998,9931,43.6,19929,49.83190325656079,42.862611086611714,-91.84435518006352,red
2938,Iowa,Floyd County,Donald Trump,REP,4732,True,19067,IA,7766,8092,43.9,15858,51.02787236725944,43.0599326464129,-92.78900648463858,red
2948,Iowa,Franklin County,Donald Trump,REP,3422,True,19069,IA,5117,5128,42.4,10245,50.05368472425573,42.73254379612189,-93.26247472244144,red
2958,Iowa,Fremont County,Donald Trump,REP,2711,True,19071,IA,3470,3498,45.8,6968,50.200918484500576,40.74556962436599,-95.60467613777904,red
2968,Iowa,Greene County,Donald Trump,REP,3223,True,19073,IA,4380,4623,44.5,9003,51.34955014995002,42.03624153306765,-94.39683406538074,red
2978,Iowa,Grundy County,Donald Trump,REP,4929,True,19075,IA,6108,6233,42.5,12341,50.50644194149583,42.401865324027554,-92.79142901258336,red
2988,Iowa,Guthrie County,Donald Trump,REP,4272,True,19077,IA,5335,5339,45.6,10674,50.018737118231215,41.683746110470366,-94.50106211564244,red
2998,Iowa,Hamilton County,Donald Trump,REP,4956,True,19079,IA,7377,7733,42.4,15110,51.17802779616149,42.38375069678499,-93.70679229401,red
3008,Iowa,Hancock County,Donald Trump,REP,4390,True,19081,IA,5494,5394,44.5,10888,49.54077883908891,43.081901667068536,-93.7342703183538,red
3018,Iowa,Hardin County,Donald Trump,REP,5850,True,19083,IA,8565,8562,44.7,17127,49.99124189875635,42.3838738801468,-93.24039754219056,red
3028,Iowa,Harrison County,Donald Trump,REP,5569,True,19085,IA,6989,7154,44.1,14143,50.58332744113696,41.68285868214177,-95.81683521170253,red
3038,Iowa,Henry County,Donald Trump,REP,6507,True,19087,IA,10125,9801,40.0,19926,49.1869918699187,40.987986103536976,-91.54454205130084,red
3048,Iowa,Howard County,Donald Trump,REP,3127,True,19089,IA,4580,4684,42.2,9264,50.56131260794473,43.35675952948708,-92.31720101184602,red
3058,Iowa,Humboldt County,Donald Trump,REP,3819,True,19091,IA,4651,4915,43.0,9566,51.37988710014635,42.77646003700154,-94.20716002649134,red
3068,Iowa,Ida County,Donald Trump,REP,2880,True,19093,IA,3457,3459,44.5,6916,50.01445922498554,42.386898436170405,-95.5134974299888,red
3078,Iowa,Iowa County,Donald Trump,REP,6009,True,19095,IA,8052,8155,42.1,16207,50.31776392916642,41.68632088464681,-92.06549578347916,red
3088,Iowa,Jackson County,Donald Trump,REP,6940,True,19097,IA,9712,9683,44.7,19395,49.92523846352152,42.17173546790929,-90.57425028646082,red
3098,Iowa,Jasper County,Donald Trump,REP,12084,True,19099,IA,18669,18222,42.3,36891,49.394161177522975,41.686029156101434,-93.05375425148848,red
3108,Iowa,Jefferson County,Donald Trump,REP,4443,True,19101,IA,9112,8965,43.0,18077,49.59340598550644,41.03176930295568,-91.94888870234652,red
3118,Iowa,Johnson County,Joe Biden,DEM,59177,True,19103,IA,72765,74236,30.0,147001,50.500336732403184,41.671532538266206,-91.5881044028689,blue
3128,Iowa,Jones County,Donald Trump,REP,6572,True,19105,IA,10585,9983,43.4,20568,48.53656164916375,42.121228096396514,-91.13146147583886,red
3138,Iowa,Keokuk County,Donald Trump,REP,3797,True,19107,IA,5202,4998,43.9,10200,49.0,41.3364575032478,-92.17863866653911,red
3148,Iowa,Kossuth County,Donald Trump,REP,6275,True,19109,IA,7547,7528,45.5,15075,49.93698175787728,43.20419580509119,-94.20671661025328,red
3158,Iowa,Lee County,Donald Trump,REP,9773,True,19111,IA,17371,17170,43.2,34541,49.70904142902637,40.64199983788537,-91.4792547054729,red
3168,Iowa,Linn County,Joe Biden,DEM,70874,True,19113,IA,109540,112581,37.5,222121,50.68453680651537,42.0789586982603,-91.5990261256698,blue
3178,Iowa,Louisa County,Donald Trump,REP,3500,True,19115,IA,5724,5499,41.2,11223,48.997594226142745,41.2185207852796,-91.2596082152854,red
3188,Iowa,Lucas County,Donald Trump,REP,3287,True,19117,IA,4318,4279,44.6,8597,49.77317668954287,41.02939549751047,-93.32773854965647,red
3198,Iowa,Lyon County,Donald Trump,REP,5707,True,19119,IA,6013,5756,38.1,11769,48.908148525788086,43.38053058053647,-96.21023288253764,red
3208,Iowa,Madison County,Donald Trump,REP,6507,True,19121,IA,8028,7862,40.1,15890,49.47765890497168,41.33071142429786,-94.01554263480166,red
3218,Iowa,Mahaska County,Donald Trump,REP,8297,True,19123,IA,11252,10956,39.7,22208,49.3335734870317,41.33521489341655,-92.64091015653412,red
3228,Iowa,Marion County,Donald Trump,REP,12663,True,19125,IA,16374,16833,39.2,33207,50.69111934230735,41.334443711421166,-93.09944584583944,red
3238,Iowa,Marshall County,Donald Trump,REP,9571,True,19127,IA,20400,19871,39.1,40271,49.34319982121129,42.03583447054834,-92.99878979177905,red
3248,Iowa,Mills County,Donald Trump,REP,5585,True,19129,IA,7516,7441,42.1,14957,49.74928127298255,41.03343007546713,-95.62131842820664,red
3258,Iowa,Mitchell County,Donald Trump,REP,3677,True,19131,IA,5282,5349,43.8,10631,50.31511616969241,43.35636379399147,-92.78901295943756,red
3268,Iowa,Monona County,Donald Trump,REP,3248,True,19133,IA,4283,4513,46.5,8796,51.30741246020919,42.05164262980906,-95.95990054023731,red
3278,Iowa,Monroe County,Donald Trump,REP,2975,True,19135,IA,4064,3799,41.8,7863,48.31489253465598,41.02979568679779,-92.86900423184778,red
3288,Iowa,Montgomery County,Donald Trump,REP,3659,True,19137,IA,4869,5286,44.0,10155,52.05317577548006,41.03014709515859,-95.15635725819116,red
3298,Iowa,Muscatine County,Donald Trump,REP,10823,True,19139,IA,21476,21474,38.1,42950,49.9976717112922,41.48392136061979,-91.11270702657453,red
3308,Iowa,O'Brien County,Donald Trump,REP,5861,True,19141,IA,6962,6949,42.4,13911,49.95327438717562,43.08375704082129,-95.62491378713388,red
3318,Iowa,Osceola County,Donald Trump,REP,2690,True,19143,IA,3091,3024,43.8,6115,49.45216680294358,43.3785791193673,-95.6236673233205,red
3328,Iowa,Page County,Donald Trump,REP,5319,True,19145,IA,7922,7441,44.0,15363,48.43455054351364,40.73913258351384,-95.15020276582293,red
3338,Iowa,Palo Alto County,Donald Trump,REP,3370,True,19147,IA,4512,4543,41.8,9055,50.17117614577582,43.08208883284721,-94.6781319209072,red
3348,Iowa,Plymouth County,Donald Trump,REP,10492,True,19149,IA,12288,12751,39.9,25039,50.92455769000359,42.73781252458548,-96.21413283323234,red
3358,Iowa,Pocahontas County,Donald Trump,REP,2826,True,19151,IA,3384,3514,47.9,6898,50.94230211655552,42.73416444916401,-94.67874432702364,red
3368,Iowa,Polk County,Joe Biden,DEM,146250,True,19153,IA,233599,240675,35.3,474274,50.74598228028524,41.68549910117088,-93.57353195940055,blue
3378,Iowa,Pottawattamie County,Donald Trump,REP,26247,True,19155,IA,45923,47580,39.5,93503,50.886067826700746,41.336622830927375,-95.54229497238848,red
3388,Iowa,Poweshiek County,Donald Trump,REP,5657,True,19157,IA,8990,9615,40.7,18605,51.67965600644988,41.68644275248716,-92.53145279349349,red
3398,Iowa,Ringgold County,Donald Trump,REP,1968,True,19159,IA,2432,2552,44.9,4984,51.20385232744783,40.73516518832041,-94.2439881234756,red
3408,Iowa,Sac County,Donald Trump,REP,4061,True,19161,IA,4818,5050,46.2,9868,51.17551682205107,42.38623878809418,-95.10535234292168,red
3418,Iowa,Scott County,Joe Biden,DEM,46926,True,19163,IA,84515,87773,38.3,172288,50.94550984398217,41.63709119699353,-90.62323883404976,blue
3428,Iowa,Shelby County,Donald Trump,REP,4697,True,19165,IA,5735,5959,46.1,11694,50.95775611424662,41.68509094897652,-95.3101778898982,red
3438,Iowa,Sioux County,Donald Trump,REP,15680,True,19167,IA,17487,17338,33.2,34825,49.78607322325915,43.08263209861856,-96.17785130694504,red
3448,Iowa,Story County,Joe Biden,DEM,29175,True,19169,IA,50484,46438,26.3,96922,47.91275458616207,42.036231175964254,-93.46503839186238,blue
3458,Iowa,Tama County,Donald Trump,REP,5303,True,19171,IA,8497,8639,42.8,17136,50.41433239962652,42.0798104703543,-92.53255420033248,red
3468,Iowa,Taylor County,Donald Trump,REP,2463,True,19173,IA,3168,3033,42.8,6201,48.91146589259797,40.73739708798839,-94.69642274171764,red
3478,Iowa,Union County,Donald Trump,REP,4010,True,19175,IA,6063,6390,39.9,12453,51.31293664177306,41.027728022295605,-94.24234882958396,red
3488,Iowa,Van Buren County,Donald Trump,REP,2859,True,19177,IA,3698,3525,44.3,7223,48.80243666066731,40.75321809871581,-91.9499662803536,red
3498,Iowa,Wapello County,Donald Trump,REP,9516,True,19179,IA,17403,17912,39.3,35315,50.720656944641085,41.03058136685314,-92.40946505100024,red
3508,Iowa,Warren County,Donald Trump,REP,17782,True,19181,IA,24118,25243,38.3,49361,51.13956362310326,41.33437071483429,-93.56135410821965,red
3518,Iowa,Washington County,Donald Trump,REP,6971,True,19183,IA,11075,11068,40.8,22143,49.98419365036354,41.33560631507609,-91.71785985029967,red
3528,Iowa,Wayne County,Donald Trump,REP,2338,True,19185,IA,3157,3256,43.0,6413,50.77186963979416,40.73949992523778,-93.32736004849912,red
3538,Iowa,Webster County,Donald Trump,REP,10938,True,19187,IA,18972,17785,39.1,36757,48.38534156759257,42.42794489533061,-94.18177670129236,red
3548,Iowa,Winnebago County,Donald Trump,REP,3707,True,19189,IA,5190,5381,42.6,10571,50.90341500331095,43.377510104571485,-93.73413099122696,red
3558,Iowa,Winneshiek County,Donald Trump,REP,6235,True,19191,IA,10156,10245,41.3,20401,50.21812656242341,43.2906200220828,-91.84367475188198,red
3568,Iowa,Woodbury County,Donald Trump,REP,25736,True,19193,IA,50496,51902,35.7,102398,50.68653684642278,42.38970362478928,-96.044774644598,red
3578,Iowa,Worth County,Donald Trump,REP,2738,True,19195,IA,3754,3735,44.0,7489,49.87314728268127,43.37737598285386,-93.26085343880676,red
3588,Iowa,Wright County,Donald Trump,REP,4136,True,19197,IA,6383,6421,43.4,12804,50.14839112777258,42.73308389908403,-93.73513750390252,red
3598,Kansas,Allen County,Donald Trump,REP,4155,True,20001,KS,6281,6349,41.8,12630,50.269200316706254,37.88572095021543,-95.30135940483048,red
3602,Kansas,Anderson County,Donald Trump,REP,2874,True,20003,KS,3932,3920,41.5,7852,49.92358634742741,38.21418083736532,-95.29333899944078,red
3605,Kansas,Atchison County,Donald Trump,REP,4826,True,20005,KS,7949,8414,36.1,16363,51.42088859011184,39.53175192857556,-95.31348731253352,red
3608,Kansas,Barber County,Donald Trump,REP,1992,True,20007,KS,2356,2377,43.8,4733,50.22184660891613,37.22885962809355,-98.68482281643055,red
3611,Kansas,Barton County,Donald Trump,REP,8480,True,20009,KS,13362,13429,40.0,26791,50.12504199171364,38.47896320030098,-98.75645855231625,red
3614,Kansas,Bourbon County,Donald Trump,REP,4910,True,20011,KS,7243,7459,39.3,14702,50.734593932798255,37.85520326753363,-94.84932868796622,red
3618,Kansas,Brown County,Donald Trump,REP,3206,True,20013,KS,4685,4979,42.2,9664,51.52110927152318,39.82648787568286,-95.56420760351776,red
3621,Kansas,Butler County,Donald Trump,REP,22250,True,20015,KS,33539,32929,38.4,66468,49.54113257507372,37.78123819078358,-96.83904179782964,red
3624,Kansas,Chase County,Donald Trump,REP,1114,True,20017,KS,1340,1305,44.4,2645,49.33837429111531,38.30203656398669,-96.59394880644976,red
3627,Kansas,Chautauqua County,Donald Trump,REP,1397,True,20019,KS,1757,1610,48.8,3367,47.81704781704782,37.1500254581448,-96.24538277313768,red
3630,Kansas,Cherokee County,Donald Trump,REP,6622,True,20021,KS,9998,10333,41.9,20331,50.82386503369239,37.1693243930692,-94.84628641875643,red
3633,Kansas,Cheyenne County,Donald Trump,REP,1158,True,20023,KS,1320,1357,45.7,2677,50.69107209562944,39.785868503615866,-101.73129385585244,red
3636,Kansas,Clark County,Donald Trump,REP,885,True,20025,KS,1037,1016,44.3,2053,49.488553336580615,37.23551253522199,-99.82030398635295,red
3639,Kansas,Clay County,Donald Trump,REP,3129,True,20027,KS,4078,4064,43.0,8142,49.91402603782855,39.34972287859645,-97.16517645779945,red
3643,Kansas,Cloud County,Donald Trump,REP,3182,True,20029,KS,4523,4537,41.0,9060,50.07726269315673,39.48029327799824,-97.6492578730064,red
3646,Kansas,Coffey County,Donald Trump,REP,3407,True,20031,KS,4195,4101,44.0,8296,49.4334619093539,38.23686350559412,-95.73410480030654,red
3650,Kansas,Comanche County,Donald Trump,REP,745,True,20033,KS,912,868,47.5,1780,48.764044943820224,37.191262969466926,-99.27184408536138,red
3654,Kansas,Cowley County,Donald Trump,REP,9442,True,20035,KS,17915,17676,38.8,35591,49.6642409597932,37.23770918886446,-96.83752845410318,red
3657,Kansas,Crawford County,Donald Trump,REP,10045,True,20037,KS,19527,19581,32.5,39108,50.06903958269408,37.5073164766456,-94.85181559403776,red
3661,Kansas,Decatur County,Donald Trump,REP,1232,True,20039,KS,1419,1462,49.5,2881,50.74626865671642,39.784737511965865,-100.45993907281454,red
3664,Kansas,Dickinson County,Donald Trump,REP,7045,True,20041,KS,9555,9449,41.5,19004,49.72111134498001,38.86648680151482,-97.15269782694128,red
3667,Kansas,Doniphan County,Donald Trump,REP,2949,True,20043,KS,3960,3776,41.3,7736,48.81075491209928,39.78806040002374,-95.14679868969304,red
3670,Kansas,Douglas County,Joe Biden,DEM,39436,True,20045,KS,59067,60252,29.5,119319,50.49656802353355,38.88466799093863,-95.29259106013194,blue
3673,Kansas,Edwards County,Donald Trump,REP,1127,True,20047,KS,1494,1431,44.7,2925,48.92307692307693,37.88761460784311,-99.31215710458548,red
3676,Kansas,Elk County,Donald Trump,REP,1130,True,20049,KS,1258,1304,51.7,2562,50.897736143637786,37.45368647213352,-96.24415484874584,red
3679,Kansas,Ellis County,Donald Trump,REP,9569,True,20051,KS,14394,14484,32.6,28878,50.15582796592562,38.91473313030484,-99.31726625504808,red
3682,Kansas,Ellsworth County,Donald Trump,REP,2106,True,20053,KS,3654,2639,42.3,6293,41.935483870967744,38.69663853398439,-98.2047604807401,red
3685,Kansas,Finney County,Donald Trump,REP,7079,True,20055,KS,18940,18017,30.5,36957,48.75125145439294,38.044282109415576,-100.73699850189044,red
3688,Kansas,Ford County,Donald Trump,REP,5763,True,20057,KS,17896,16588,31.9,34484,48.1034682751421,37.69171750246171,-99.88795653621146,red
3692,Kansas,Franklin County,Donald Trump,REP,8326,True,20059,KS,12567,12996,39.1,25563,50.8391033916207,38.56453052754611,-95.28594746656036,red
3695,Kansas,Geary County,Donald Trump,REP,5193,True,20061,KS,18540,16355,26.1,34895,46.86917896546783,39.00241626170008,-96.7525303867292,red
3698,Kansas,Gove County,Donald Trump,REP,1256,True,20063,KS,1298,1321,48.1,2619,50.439098892707136,38.91609173974979,-100.48296674923589,red
3701,Kansas,Graham County,Donald Trump,REP,1052,True,20065,KS,1290,1255,51.9,2545,49.312377210216106,39.34972719215288,-99.88322903036926,red
3704,Kansas,Grant County,Donald Trump,REP,1910,True,20067,KS,3988,3628,32.6,7616,47.63655462184874,37.56226603220589,-101.3080180303892,red
3707,Kansas,Gray County,Donald Trump,REP,1871,True,20069,KS,3025,3012,36.2,6037,49.89233062779526,37.73818202756176,-100.4378836007286,red
3710,Kansas,Greeley County,Donald Trump,REP,537,True,20071,KS,581,619,36.5,1200,51.583333333333336,38.48056391021059,-101.80604412409004,red
3714,Kansas,Greenwood County,Donald Trump,REP,2404,True,20073,KS,3106,3050,48.7,6156,49.545159194282,37.87782471018117,-96.2326122179414,red
3717,Kansas,Hamilton County,Donald Trump,REP,684,True,20075,KS,1353,1263,32.2,2616,48.27981651376147,37.99912300479694,-101.7912405694022,red
3720,Kansas,Harper County,Donald Trump,REP,2128,True,20077,KS,2884,2789,42.3,5673,49.16270051119337,37.19162258456055,-98.0754831271809,red
3723,Kansas,Harvey County,Donald Trump,REP,10015,True,20079,KS,17200,17355,39.5,34555,50.22428013312111,38.04321375981529,-97.4272328635256,red
3726,Kansas,Haskell County,Donald Trump,REP,1103,True,20081,KS,2006,2041,36.6,4047,50.43241907585866,37.56222282794295,-100.87117939476896,red
3729,Kansas,Hodgeman County,Donald Trump,REP,866,True,20083,KS,941,901,49.1,1842,48.914223669924,38.08749316612595,-99.8979261293054,red
3732,Kansas,Jackson County,Donald Trump,REP,4435,True,20085,KS,6642,6676,41.6,13318,50.127646793812886,39.4168246354084,-95.7936687545212,red
3735,Kansas,Jefferson County,Donald Trump,REP,6193,True,20087,KS,9581,9307,44.2,18888,49.27467174925879,39.23576284638811,-95.38343918962302,red
3739,Kansas,Jewell County,Donald Trump,REP,1369,True,20089,KS,1482,1434,52.6,2916,49.17695473251029,39.78473318645306,-98.21833954684782,red
3742,Kansas,Johnson County,Joe Biden,DEM,184259,True,20091,KS,286987,298515,37.5,585502,50.98445436565545,38.88376637108757,-94.82231676678708,blue
3746,Kansas,Kearny County,Donald Trump,REP,1134,True,20093,KS,1934,1998,34.4,3932,50.81383519837232,38.00023249997622,-101.3198829556369,red
3749,Kansas,Kingman County,Donald Trump,REP,3102,True,20095,KS,3749,3721,45.5,7470,49.81258366800535,37.558898379636304,-98.1363358671696,red
3753,Kansas,Kiowa County,Donald Trump,REP,957,True,20097,KS,1234,1292,40.3,2526,51.14806017418844,37.55822973537817,-99.28607727026753,red
3756,Kansas,Labette County,Donald Trump,REP,5639,True,20099,KS,10070,10297,40.6,20367,50.55727402170177,37.19130785318974,-95.2975707000028,red
3759,Kansas,Lane County,Donald Trump,REP,757,True,20101,KS,850,792,41.2,1642,48.23386114494519,38.48133333892274,-100.4664250982408,red
3763,Kansas,Leavenworth County,Donald Trump,REP,21378,True,20103,KS,42933,37109,37.6,80042,46.361909997251445,39.19930866713226,-95.03798734274793,red
3766,Kansas,Lincoln County,Donald Trump,REP,1273,True,20105,KS,1585,1512,46.4,3097,48.8214401033258,39.045308689163214,-98.20769052920934,red
3769,Kansas,Linn County,Donald Trump,REP,3940,True,20107,KS,4800,4835,43.9,9635,50.18162947586923,38.21226066566053,-94.84297032065916,red
3772,Kansas,Logan County,Donald Trump,REP,1231,True,20109,KS,1398,1412,40.0,2810,50.24911032028469,38.917303856268006,-101.14840969371984,red
3775,Kansas,Lyon County,Donald Trump,REP,7381,True,20111,KS,16260,17039,33.4,33299,51.16970479593982,38.45619845237337,-96.15264733219634,red
3778,Kansas,McPherson County,Donald Trump,REP,9562,True,20113,KS,14159,14471,41.1,28630,50.54488298987077,38.39165317458447,-97.64801952073267,red
3781,Kansas,Marion County,Donald Trump,REP,4377,True,20115,KS,5971,6061,44.7,12032,50.37400265957447,38.35886741141062,-97.09688686837391,red
3784,Kansas,Marshall County,Donald Trump,REP,3662,True,20117,KS,4924,4874,44.0,9798,49.7448458869157,39.78356676290934,-96.52294060891872,red
3787,Kansas,Meade County,Donald Trump,REP,1508,True,20119,KS,2129,2132,37.3,4261,50.03520300398967,37.23813195051961,-100.36625100047996,red
3790,Kansas,Miami County,Donald Trump,REP,12116,True,20121,KS,16384,16743,41.9,33127,50.54185407673499,38.56353190568405,-94.83809568214888,red
3793,Kansas,Mitchell County,Donald Trump,REP,2454,True,20123,KS,3163,3059,43.5,6222,49.16425586628094,39.39326642151083,-98.2093697891757,red
3796,Kansas,Montgomery County,Donald Trump,REP,9768,True,20125,KS,16410,16560,40.5,32970,50.227479526842586,37.19252118956855,-95.74287901003302,red
3799,Kansas,Morris County,Donald Trump,REP,2085,True,20127,KS,2753,2813,47.7,5566,50.53898670499461,38.68741557855644,-96.64990012159818,red
3802,Kansas,Morton County,Donald Trump,REP,1004,True,20129,KS,1449,1389,43.1,2838,48.94291754756871,37.19138844911043,-101.79924905833052,red
3805,Kansas,Nemaha County,Donald Trump,REP,4612,True,20131,KS,5119,4985,39.9,10104,49.3368962787015,39.78341152357889,-96.0140804799972,red
3808,Kansas,Neosho County,Donald Trump,REP,4795,True,20133,KS,7923,8202,40.1,16125,50.86511627906977,37.55849543274056,-95.30679410545142,red
3811,Kansas,Ness County,Donald Trump,REP,1315,True,20135,KS,1493,1462,48.7,2955,49.47546531302877,38.47942841040646,-99.9161527727777,red
3814,Kansas,Norton County,Donald Trump,REP,1977,True,20137,KS,3036,2450,43.2,5486,44.65913233685745,39.78438554894026,-99.903485411262,red
3818,Kansas,Osage County,Donald Trump,REP,5591,True,20139,KS,7968,7914,43.6,15882,49.82999622213827,38.65232090688269,-95.72690732142188,red
3822,Kansas,Osborne County,Donald Trump,REP,1590,True,20141,KS,1807,1796,46.7,3603,49.8473494310297,39.35033034228786,-98.76794728456048,red
3825,Kansas,Ottawa County,Donald Trump,REP,2581,True,20143,KS,3043,2859,42.6,5902,48.44120637072179,39.13253161544489,-97.65021153749178,red
3828,Kansas,Pawnee County,Donald Trump,REP,2028,True,20145,KS,3769,2940,45.7,6709,43.82173200178865,38.18132473117499,-99.23672224318985,red
3831,Kansas,Phillips County,Donald Trump,REP,2388,True,20147,KS,2648,2760,44.6,5408,51.03550295857988,39.78456374152079,-99.34700885900854,red
3835,Kansas,Pottawatomie County,Donald Trump,REP,9247,True,20149,KS,11746,11799,35.1,23545,50.11255043533659,39.37900505304808,-96.3423718321073,red
3838,Kansas,Pratt County,Donald Trump,REP,3087,True,20151,KS,4785,4797,38.5,9582,50.06261740763932,37.647731780450094,-98.73962276229317,red
3841,Kansas,Rawlins County,Donald Trump,REP,1253,True,20153,KS,1286,1223,49.2,2509,48.74451972897569,39.78518765694615,-101.07585048736064,red
3844,Kansas,Reno County,Donald Trump,REP,17948,True,20155,KS,31775,31326,40.4,63101,49.644221169236616,37.95295884789992,-98.08598674367596,red
3848,Kansas,Republic County,Donald Trump,REP,2172,True,20157,KS,2271,2415,51.1,4686,51.53649167733675,39.82776407122262,-97.65061755377933,red
3851,Kansas,Rice County,Donald Trump,REP,3187,True,20159,KS,4844,4918,39.1,9762,50.37902069248105,38.34717595133614,-98.20098736684696,red
3854,Kansas,Riley County,Joe Biden,DEM,11940,True,20161,KS,39909,35387,25.1,75296,46.99718444538887,39.29656769317891,-96.73515678683286,blue
3857,Kansas,Rooks County,Donald Trump,REP,2294,True,20163,KS,2469,2649,43.8,5118,51.758499413833526,39.350225780859766,-99.32501191657444,red
3860,Kansas,Rush County,Donald Trump,REP,1425,True,20165,KS,1521,1581,47.6,3102,50.96711798839458,38.52312790320487,-99.30915300755582,red
3863,Kansas,Russell County,Donald Trump,REP,2765,True,20167,KS,3452,3525,49.1,6977,50.52314748459224,38.91480564225413,-98.76238718952273,red
3866,Kansas,Saline County,Donald Trump,REP,15313,True,20169,KS,27375,27602,38.5,54977,50.20644996998745,38.78381121414141,-97.64995458753263,red
3869,Kansas,Scott County,Donald Trump,REP,1991,True,20171,KS,2460,2489,39.4,4949,50.292988482521714,38.48217370162669,-100.90685975717476,red
3872,Kansas,Sedgwick County,Donald Trump,REP,117653,True,20173,KS,253201,258863,35.2,512064,50.552860579927504,37.68476831641511,-97.46098502204742,red
3875,Kansas,Seward County,Donald Trump,REP,3285,True,20175,KS,11601,11091,29.4,22692,48.87625594923321,37.19332916172251,-100.85134443991512,red
3878,Kansas,Shawnee County,Joe Biden,DEM,43015,True,20177,KS,86327,91957,38.9,178284,51.57894146418075,39.04151430752982,-95.75652929631045,blue
3882,Kansas,Sheridan County,Donald Trump,REP,1237,True,20179,KS,1275,1231,44.3,2506,49.12210694333599,39.35034743900767,-100.44183950253668,red
3886,Kansas,Sherman County,Donald Trump,REP,2222,True,20181,KS,3003,2963,38.8,5966,49.66476701307408,39.35144905625173,-101.71998405267168,red
3890,Kansas,Smith County,Donald Trump,REP,1734,True,20183,KS,1809,1854,51.6,3663,50.61425061425061,39.785166937239865,-98.78546972562616,red
3893,Kansas,Stafford County,Donald Trump,REP,1631,True,20185,KS,2157,2057,44.4,4214,48.81347887992406,38.030981144120354,-98.71742593869575,red
3896,Kansas,Stanton County,Donald Trump,REP,607,True,20187,KS,1055,1008,39.6,2063,48.86088221037324,37.56300498469527,-101.78421666469306,red
3899,Kansas,Stevens County,Donald Trump,REP,1731,True,20189,KS,2882,2804,34.7,5686,49.31410481885332,37.19233948988696,-101.3120589534354,red
3902,Kansas,Sumner County,Donald Trump,REP,7998,True,20191,KS,11581,11627,41.1,23208,50.09910375732506,37.23731237107008,-97.4765427738525,red
3905,Kansas,Thomas County,Donald Trump,REP,3106,True,20193,KS,3816,4008,36.1,7824,51.22699386503068,39.3509175524102,-101.05556039582862,red
3909,Kansas,Trego County,Donald Trump,REP,1341,True,20195,KS,1450,1408,49.2,2858,49.26522043386984,38.91430950887512,-99.87283476983828,red
3912,Kansas,Wabaunsee County,Donald Trump,REP,2813,True,20197,KS,3497,3391,43.8,6888,49.23054587688734,38.95326993358754,-96.20499592102692,red
3915,Kansas,Wallace County,Donald Trump,REP,762,True,20199,KS,790,785,43.1,1575,49.84126984126984,38.91668120793141,-101.76361597256924,red
3918,Kansas,Washington County,Donald Trump,REP,2332,True,20201,KS,2844,2681,46.5,5525,48.52488687782805,39.78417867036999,-97.08753438664354,red
3921,Kansas,Wichita County,Donald Trump,REP,803,True,20203,KS,1019,1124,45.0,2143,52.44983667755483,38.48205352332075,-101.34738393157916,red
3925,Kansas,Wilson County,Donald Trump,REP,3111,True,20205,KS,4318,4462,43.9,8780,50.82004555808656,37.55926512961432,-95.74341897352504,red
3928,Kansas,Woodson County,Donald Trump,REP,1189,True,20207,KS,1583,1587,48.3,3170,50.063091482649845,37.88669687608426,-95.74013435622687,red
3931,Kansas,Wyandotte County,Joe Biden,DEM,35566,True,20209,KS,81294,83051,33.7,164345,50.534546228969546,39.11461543591877,-94.76455164790416,blue
3934,Kentucky,Adair County,Donald Trump,REP,7276,True,21001,KY,9525,9716,41.5,19241,50.496335949274986,37.104170059474406,-85.28062000478373,red
3940,Kentucky,Allen County,Donald Trump,REP,7587,True,21003,KY,10339,10455,40.0,20794,50.27892661344618,36.75125145291904,-86.19041518742969,red
3946,Kentucky,Anderson County,Donald Trump,REP,9661,True,21005,KY,10873,11341,41.0,22214,51.05338975420906,38.00392064963655,-84.99099658225089,red
3952,Kentucky,Ballard County,Donald Trump,REP,3356,True,21007,KY,3992,4098,43.3,8090,50.65512978986403,37.05848196169252,-88.99925588833919,red
3958,Kentucky,Barren County,Donald Trump,REP,14654,True,21009,KY,21165,22515,40.3,43680,51.545329670329664,36.96558592282017,-85.93366216125541,red
3964,Kentucky,Bath County,Donald Trump,REP,3986,True,21011,KY,6096,6172,40.4,12268,50.309748940332575,38.144952166305785,-83.74267657495382,red
3970,Kentucky,Bell County,Donald Trump,REP,8140,True,21013,KY,13325,13863,41.6,27188,50.98940709136384,36.73064599952872,-83.67408276436716,red
3976,Kentucky,Boone County,Donald Trump,REP,44814,True,21015,KY,64061,65034,37.3,129095,50.3768542546187,38.96985577092013,-84.72783779986514,red
3982,Kentucky,Bourbon County,Donald Trump,REP,6190,True,21017,KY,9670,10474,42.1,20144,51.99563145353455,38.206734524949525,-84.21715057392247,red
3988,Kentucky,Boyd County,Donald Trump,REP,14295,True,21019,KY,23958,24133,41.9,48091,50.18194672599863,38.35957259337337,-82.68775351233899,red
3994,Kentucky,Boyle County,Donald Trump,REP,8872,True,21021,KY,14903,15010,40.3,29913,50.17885200414536,37.62438277360131,-84.86684215389371,red
4000,Kentucky,Bracken County,Donald Trump,REP,3398,True,21023,KY,4183,4123,40.7,8306,49.63881531423068,38.68879489397331,-84.09014459480437,red
4006,Kentucky,Breathitt County,Donald Trump,REP,4265,True,21025,KY,6577,6539,41.6,13116,49.85513876181763,37.52161566989987,-83.32406324598597,red
4012,Kentucky,Breckinridge County,Donald Trump,REP,7701,True,21027,KY,10088,9992,42.9,20080,49.7609561752988,37.773389379967895,-86.42933749903693,red
4018,Kentucky,Bullitt County,Donald Trump,REP,30708,True,21029,KY,39627,39839,40.1,79466,50.13339038079179,37.97007363413742,-85.69586025760096,red
4024,Kentucky,Butler County,Donald Trump,REP,4960,True,21031,KY,6412,6333,41.0,12745,49.69007453903492,37.207284503217736,-86.68162334315123,red
